Name,lat,lon,Routes
87th Street & Dauphin/Ingleside,41.736645001,-87.60132199899999,87
65th Street & Long,41.774417971,-87.75665020299999,165
Lawrence & Lawndale,41.968217656,-87.720802335,81
61st Street & Ellis,41.784046678,-87.60126456100001,59
900 W Roosevelt,41.867219209,-87.649431444,12
Montrose & Winchester,41.961531076,-87.677373726,78
Stony Island & Anthony,41.748683515,-87.585401567,28
Commercial & 102nd Street,41.709961095,-87.55218460100001,71
Yates & Exchange,41.765663033,-87.566420389,71
Austin & Fulton/Pleasant,41.885678023000004,-87.774752889,91
Ashland Orange Line Station,41.839103216999995,-87.665255395,31
71st Street & Merrill,41.766323,-87.572451999,71
Diversey & Mildred,41.932745899000004,-87.651314502,76
31st Street & Halsted,41.838102093,-87.646124058,31
Wentworth & 26th Street,41.845315,-87.631745001,24
Garfield & Damen,41.793969244,-87.67457833700001,55
Fullerton & Kostner,41.924456622,-87.736478192,74
Chicago & State (Red Line),41.896741036,-87.62802243899999,66
115th Street & Halsted,41.685153479,-87.64256227799999,115
Madison & Menard,41.880265563,-87.769660863,20
Grand & Hamlin,41.904396606999995,-87.72182109999999,65
Belmont & Menard,41.93857548,-87.771268188,77
Montrose & Western,41.961386184,-87.68850147399999,78
Lunt & Clark,42.009035311999995,-87.67418355,96
Ontario & State,41.893342872,-87.62837779899999,125
55th Street & Keeler,41.793240737,-87.727949148,55
106th Street & Avenue O,41.702815466,-87.53999098799999,"26,100"
106th Street & Muskegon,41.70284488,-87.554663997,"26,100"
Pershing & Halsted,41.823539889,-87.646344488,39
Halsted & 47th Street,41.809109000999996,-87.645432999,"8,44"
Pulaski & Foster,41.975383384000004,-87.72810981399999,53
Wentworth & 71st Street,41.765295,-87.629689999,24
Pulaski & Harrison (Blue Line),41.873373043,-87.725312899,53
18th Street & Racine,41.857894,-87.656531,18
93rd Street & Jeffery,41.726056151,-87.575591339,"N5,95"
Irving Park & Clarendon,41.954510905,-87.649409812,"80,135,148"
119th Street & Halsted,41.677742849,-87.642142261,119
Pershing & Vincennes,41.823804024,-87.61278769399999,39
Irving Park & Kimball,41.953968284,-87.712792029,80
California & Foster,41.976025755,-87.698841825,93
Montrose & Long,41.960635758,-87.76215121700001,78
Diversey & Kedzie,41.932118183,-87.70730498399999,76
87th Street & Dobson,41.736782001,-87.598956999,87
Madison & Kostner,41.880720531,-87.735738525,20
Devon & Sacramento,41.997534512,-87.704697394,155
Madison & Laramie,41.880467554,-87.755334101,20
69th Street & Halsted,41.76890717,-87.644377367,67
Foster & Cicero,41.975262495,-87.748219619,92
51st Street & State,41.801872257,-87.626114295,15
Belmont & Menard,41.93845382,-87.77112735799999,77
Polk & Wood,41.871466999999996,-87.671593,157
Diversey Brown Line Station,41.932578454,-87.65362119299999,76
79th Street & Lawndale,41.749517276999995,-87.71461123700001,79
Roosevelt & Clark,41.867238608,-87.630606106,"12,18,N62"
47th Street & Damen,41.808446656,-87.67483486200001,"47,48"
Chicago & Homan,41.895432989,-87.711042489,66
71st Street & Yates,41.7658,-87.566643001,71
Devon & Kedzie,41.997326704,-87.70904956700001,155
Addison & Laramie,41.945903587,-87.757035595,152
Division & Wells,41.903785035,-87.63465985299999,70
Jackson & Keeler,41.876963,-87.7302,126
87th Street & Halsted,41.735976478000005,-87.643131134,"24,87"
Division & Wood,41.903194896,-87.67209194799999,70
Lunt & Clark,42.008930995,-87.674091478,96
59th Street & California,41.786335619,-87.69374132899999,59
69th Street & King Drive,41.769280546,-87.615482531,"N5,30,67"
Harrison & Oakley,41.873882,-87.683913,7
Cicero & Lexington (Blue Line),41.871076,-87.744822,54
Ewing & 106th Street,41.702980148,-87.535193361,30
Damen & Argyle,41.972305,-87.67922,50
Narragansett & Grand,41.922758157,-87.785326022,86
Pulaski & 14th Street,41.862688901,-87.72497574100001,53
Western & Hirsch,41.90681176,-87.686992231,49
Damen & 87th Street Terminal,41.736234579,-87.672983244,"48,95"
Chestnut & Mies Van Der Rohe,41.89846025,-87.62267307200001,"10,125"
Foster & Jewel Prking Ent,41.975600106,-87.72934583899999,92
Halsted & Erie,41.893451001,-87.64774399999999,8
Northwest Hwy & Nagle,41.985939883,-87.787820745,68
79th Street & Western,41.750001,-87.68306700000001,169
4200 S Wentworth,41.81805,-87.631253,24
Wentworth & 27th Street,41.844130739,-87.631941959,24
Wells & 52nd Street,41.800185,-87.632012001,24
31st Street & Morgan,41.837913459,-87.651175855,31
47th Street & Rockwell,41.808420818,-87.689213379,"47,94"
Belmont & Laramie,41.938771617,-87.756496271,77
18th Street & Western,41.857329217,-87.68568273700001,18
Damen & 63rd Street,41.779435817,-87.673994081,48
Clark & Irving Park,41.954497335999996,-87.66243285600001,22
Pulaski & Jackson,41.877170045,-87.725642334,53
Halsted & 71st Street,41.765332,-87.644472,8
Laramie & Augusta,41.898664001,-87.755751,57
63rd Street & 74th Avenue,41.777261227,-87.80566527299999,"62H,63W"
111th Street & Spaulding,41.691590593,-87.703257221,112
71st Street & Lawndale,41.764247484,-87.714905989,67
Devon & Lakewood,41.998238887,-87.662921679,"36,151,155"
75th Street & Eberhart,41.758512293,-87.612551796,75
Belmont & Lakewood,41.939874833000005,-87.661233827,77
Belmont & Kilbourn,41.938979008000004,-87.739390032,77
74th Street & Parnell,41.759892041,-87.638421895,75
63rd Street & Leamington,41.778315846,-87.75083651899999,63W
71st Street & Eberhart,41.765829855999996,-87.61297940200001,71
103rd Street & Malta,41.706830189,-87.65698072299999,103
Addison & Kostner,41.946306204,-87.73718560200001,152
Belmont & Oriole (76th Avenue),41.938013706,-87.816386794,77
103rd Street & Oakley,41.706450183,-87.67987548299999,103
16th Street & Washtenaw,41.859305758000005,-87.693175421,18
Jackson & Lotus,41.876612118000004,-87.761545486,126
Lunt & Glenwood,42.009170975,-87.666125291,96
71st Street & Springfield,41.764157,-87.719663001,67
16th Street & Springfield,41.858961548,-87.722299249,18
Madison & Lamon,41.880570589,-87.747518499,20
119th Street & Western,41.677140698,-87.68030668600001,119
103rd Street & Charles,41.706804285,-87.65854774,103
California & Berwyn,41.977569,-87.698904,93
5200 S S Hyde Park,41.800846548,-87.58442446299999,"6,28"
Racine & 61st Street,41.783166669,-87.654512571,44
Dodge & Lee,42.03557743,-87.699089519,"93,206"
Nagle & Haft,41.995149847,-87.78743095799999,86
Pulaski Pink Line Station,41.853679779000004,-87.724699399,53
Archer & 34th Street,41.832565415,-87.673916661,62
Ashland & 66th Street,41.774118537,-87.664200623,9
Skokie Blvd & Madison,42.031601001,-87.747551,54A
Vincennes & Montvale,41.688248598,-87.665615181,111
Kedzie & 56th Street,41.791785157,-87.70358439700001,"52,52A"
115th Street & Aberdeen,41.684934945,-87.64950931,115
47th Street & Albany,41.808100954000004,-87.701566592,47
Belmont & Seminary,41.939799807,-87.65665745,77
Belmont & New England,41.93806,-87.79822,77
1500 E 95th Street,41.722204,-87.587951999,"N5,95,100"
4600 W Armitage,41.916927275999996,-87.741798636,73
Armitage & Lawndale,41.91719359,-87.71932438,73
47th Street & Oakley,41.80837501,-87.68210614799999,"47,48"
Lawrence & Octavia,41.967098,-87.80960299899999,81W
Pershing & Francisco,41.822679769000004,-87.697209139,39
75th Street & Exchange,41.759289979,-87.55956204799999,71
Jackson & Albany,41.877288,-87.703323001,126
Belmont & Knox,41.938805486999996,-87.74329321799999,77
Diversey & Seminary,41.9325708,-87.656466917,76
91st Street & Brandon,41.730031800999996,-87.54698928200001,"26,30"
115th Street & Lawndale,41.68401992,-87.71292126,52A
Fillmore & Austin,41.867224554,-87.774062691,91
Root & Princeton,41.818996000000006,-87.633645,43
Church & Maple,42.048401304,-87.68505817200001,"201,205"
111th Street & Union,41.692324925,-87.640054353,111
4700 W Old Orchard Rd,42.062315416,-87.744729656,201
Harrison & Washtenaw,41.873755001,-87.693779,7
75th Street & Langley,41.758479339000004,-87.607939215,75
16th Street & Rockwell,41.859252399,-87.6907968,18
Addison & Overhill,41.945169001,-87.819706001,152
87th Street & Escanaba,41.737287947,-87.55430104,87
Peterson & Lincoln,41.990280915999996,-87.70749485299999,84
Devon & Hoyne,41.997747219000004,-87.682673886,155
Kedzie & 109th Street,41.695129,-87.700871999,52A
California & Lunt,42.008364,-87.69969499999999,93
King Drive & 33rd Street,41.834949899,-87.61693353700001,"3,31"
Kedzie & 107th Street,41.698785,-87.70100500000001,52A
Oakton & Asbury,42.026828145,-87.690195554,206
Peterson & Jersey,41.990470144,-87.71078294,84
55th Street & Meade,41.792550365,-87.77438402899999,55N
87th Street & Longwood,41.735722828,-87.675874258,"87,95"
63rd Street & Mayfield,41.777972349,-87.768899301,63W
Congress & Hamlin/Independence,41.874509487,-87.71961416799999,"7,126"
87th Street & Hamlin,41.735036014,-87.71645347,87
North Ave & Leavitt,41.910496882,-87.682227695,72
79th Street & Cottage Grove,41.751356901,-87.60505166899999,79
71st Street & Stony Island,41.766197,-87.58570300000001,71
Jackson & Lavergne,41.876803929,-87.749340284,126
Irving Park & Neenah,41.952915339,-87.790762859,80
California & Harrison,41.873692818,-87.696002125,94
California & Harrison,41.87358674,-87.696180959,94
California & Roosevelt,41.866349781,-87.69578135200001,94
65th Street & Lavergne,41.7747378,-87.746835415,165
59th Street & Central Park,41.786167255,-87.712718705,59
51st Street & Evans,41.802288138,-87.60785102,15
Irving Park & Hermitage,41.954352756999995,-87.67208942200001,80
Ewing & 94th Street,41.724798024,-87.538189928,"26,30"
9320 S Ewing,41.726644596999996,-87.540050522,"26,30"
Racine & 64th Street,41.777731,-87.654353,44
Langley & 132nd Street,41.655717892,-87.605069215,34
Wentworth & 23rd Street,41.851087,-87.63202199999999,24
Cermak & Loomis,41.852493552,-87.661385816,21
Cermak & Morgan,41.852502,-87.65149100000001,21
Addison & Western,41.946659899000004,-87.68847434,152
Chicago & Hamlin,41.895339796,-87.72091557,66
111th Street & Campbell,41.691708001,-87.683757999,112
Madison & St. Louis,41.880813878000005,-87.713819635,20
Armitage & Kilpatrick,41.916901001,-87.743792,73
Acacia Park Cemetery,41.952287885,-87.82371560700001,80
Golf Road & Hamlin,42.05521183,-87.72279170700001,205
Madison & Kenton,41.880475,-87.740705,20
111th Street & Vernon,41.692670464,-87.612262926,"4,111A,115"
79th Street & Colfax,41.751740708,-87.561192923,79
Belmont & Mason,41.938406645,-87.774710555,77
Belmont & Lamon,41.938738244,-87.74904333,77
Belmont & Kenosha,41.938931014,-87.734161534,77
Halsted & 79th Street Terminal,41.749804125,-87.643701835,"8,8A"
Central Street & Walnut,42.064477312,-87.7046645,"201,206"
North Ave & Meade,41.909295755,-87.777470045,72
Foster & Washtenaw,41.975914988,-87.69635994,92
Monterey & Hermosa,41.690829149,-87.666717064,112
Monterey & Hale,41.691995338000005,-87.670439394,112
61st Street & Langley,41.784070461,-87.60837788799999,"N4,59"
3000 W 103rd Street,41.706351921999996,-87.696270808,103
Belmont & Washtenaw,41.939492316999996,-87.695063406,77
59th Street & Laflin,41.786848834000004,-87.661764694,59
103rd Street & Indiana,41.707303261,-87.61852818700001,"34,106"
Belmont & Paulina,41.939724491999996,-87.671003185,77
51st Street & Wentworth,41.8019,-87.630189999,15
31st Street & Canal,41.838224196,-87.637666423,31
87th Street & Morgan,41.73610083,-87.648837766,"24,87"
Wacker & State,41.887026842,-87.62814440700001,"134,135,136"
Montrose & Menard,41.960479388,-87.77200467899999,78
Pulaski & Wellington,41.935264878000005,-87.727206521,53
Kedzie & 36th Street,41.828170035999996,-87.704650735,52
Milwaukee & Berteau,41.956977916,-87.751144436,56
Halsted & 83rd Street,41.743515,-87.643883,8A
Racine & 51st Street,41.801500001,-87.655104001,44
State & 43rd Street,41.81659818,-87.62639712100001,29
California & Madison,41.880891005,-87.69637461200001,94
King Drive & 63rd Street,41.779958468000004,-87.61569366100001,3
Clinton & Madison,41.881976001,-87.641266999,"128,132,192"
Irving Park & Lamon,41.953307751,-87.749948753,80
Garfield & Racine,41.79375704,-87.654463797,55
Madison & Lockwood,41.88025187,-87.757789648,20
Harlem & Diversey,41.930994463000005,-87.80641009200001,90
Austin & Wellington,41.935060744,-87.776026714,91
Ashland & 57th Street,41.790252989,-87.66434247,9
Racine & 76th Street,41.756519464,-87.65378542399999,"44,75"
North Ave & Hamlin,41.90988,-87.721763,72
Jackson & Central Park,41.877141824,-87.71547719899999,126
Irving Park & Damen/Lincoln,41.954049517,-87.67887969600001,80
63rd Street & Keeler,41.778549,-87.727742,63
119th Street & Loomis,41.677540293,-87.65658841,119
Addison & Narragansett,41.94560324,-87.785951149,152
Dearborn & Monroe,41.880948,-87.629285,"22,24,36,62,151"
Halsted & Armitage,41.918077446999995,-87.64841954799999,8
79th Street & Wood,41.750241261,-87.668327261,79
35th Street & Damen,41.830338001,-87.675436999,35
Polk & Damen,41.871421387,-87.676633493,157
79th Street & Indiana,41.750984386,-87.619874203,79
111th Street & Michigan,41.692539521,-87.62122408200001,111
Madison & Menard,41.880087764,-87.76992190799999,20
87th Street & Morgan,41.7358845,-87.64808512200001,"24,87"
51st Street & King Drive,41.802038764,-87.615741315,15
S. Shore Drive & 79th Street,41.752234038000005,-87.548232429,"N5,6,26,71"
47th Street & Wallace,41.808873749,-87.640817612,47
71st Street & King Drive,41.76563,-87.615479999,71
111th Street & Indiana,41.69257126,-87.61840705,111
Morse & Sheridan,42.007902627,-87.66177917600001,155
Homan & Grand,41.900274544,-87.71154688799999,82
Cottage Grove & 60th Street,41.785736785,-87.60593410799999,4
Ashland & Webster,41.921360432,-87.668471023,9
LaSalle & Huron,41.894842486,-87.63257579399999,156
Sedgwick & North Avenue,41.910960736999996,-87.63851320200001,37
92nd Street & Baltimore,41.728184180999996,-87.548627037,95
79th Street & Kilpatrick,41.749111071,-87.73722716299999,79
Fullerton & Kilpatrick,41.924143016,-87.743973626,74
Taylor & Throop,41.869314248,-87.659293654,157
Jackson & Karlov,41.877006596,-87.72780787100001,126
Foster & Monticello,41.975526,-87.71978,92
Ashland & Cermak/Blue Island,41.852483676,-87.66617293,"9,X9"
Clark & Albion,42.001785039,-87.67198064700001,22
Clark & Burton,41.909496999999995,-87.63171899999999,"22,36"
Ridge & Broadway/Bryn Mawr,41.983932,-87.66044699999999,84
Lincoln & Berwyn,41.977713,-87.692578001,11
California & Devon,41.99764619,-87.69972827,93
Halsted & 115th Street,41.685192786,-87.642279285,"8A,108"
Racine & 60th Street,41.785137359000004,-87.654694881,44
Racine & 68th Street,41.77057756,-87.654342005,44
Michigan & 110th Street,41.6945046,-87.62086381600001,"34,119"
Cicero & Iowa,41.896936001,-87.745910001,54
Archer & Major,41.795441078,-87.764645953,"62,62H"
Broadway & Surf,41.934928293,-87.64431033700001,36
Northwest Hwy & Overhill,42.004327362,-87.818709079,68
Northwest Hwy & Niagara,41.993399635,-87.8008397,68
Cicero & Pershing,41.821795531,-87.743693276,54B
King Drive & 90th Street,41.73096625,-87.61445367299999,3
Jefferson Park Transit Center,41.969849265,-87.76185024700001,81
S. Shore Drive & 77th Street,41.756895468,-87.55339915299999,"N5,6,26,71"
Broadway & Cullom,41.960081,-87.654145,36
Wentworth & Cermak,41.85269836,-87.631918092,24
Irving Park & Keystone (Blue Line),41.95374569,-87.72903943899999,80
67th Street & East End,41.773418424,-87.583830455,"N5,6,15,67"
Jackson & Campbell,41.877590708,-87.688684667,126
47th Street & Albany,41.808222888,-87.701404831,47
Congress & Karlov,41.874398682,-87.72774701,7
Madison & Peoria,41.8818,-87.649477,20
Lawrence & Menard,41.967760999999996,-87.772711,"81W,91"
71st Street & Spaulding,41.764399001,-87.70520000100001,67
Roosevelt & May,41.86711341,-87.654991111,12
Lawrence & Prospect,41.966765166,-87.83101847399999,81W
43rd Street & Cottage Grove,41.816881724,-87.606574716,43
87th Street & Albany,41.735377695,-87.699600335,87
131st Street & Rhodes,41.657499,-87.609600999,34
4600 W Armitage,41.917050437,-87.741836725,73
Central Street & Ridge,42.064170000000004,-87.68329,201
Lawrence & Major,41.967801,-87.77006899999999,"81W,91"
State & Huron,41.895007,-87.628241,36
Addison & Melvina,41.945754585,-87.781228293,152
Belmont & Central Park,41.939275529,-87.71726747,77
Chicago & Hamlin,41.895488072,-87.721349843,66
Addison & California,41.946744688,-87.69785557700001,152
51st Street & Indiana,41.802103474,-87.62093294600001,15
Cermak & Archer,41.852940792,-87.63427350100001,21
35th Street & Michigan,41.831099729,-87.623699927,35
Roosevelt & Keeler,41.866184359,-87.72995235399999,12
Belmont & Central,41.938639894,-87.766776659,77
Grand & Menard,41.919756645,-87.770913083,65
Cermak & Throop,41.85250609,-87.65859157700001,21
127th Street & Michigan,41.663544454000004,-87.61978426600001,"34,108"
Montrose & Oakley,41.961397999999996,-87.686301,78
Grand & Wood,41.890986699,-87.67186200200001,65
51st Street & King Drive,41.802163603000004,-87.616823307,15
59th Street & Sacramento,41.786385212,-87.69833257399999,59
Chicago & Ashland,41.896151408,-87.66707916,66
Halsted & Lincoln/Fullerton,41.925718774,-87.648676938,8
Pulaski & Addison,41.946187591,-87.727492169,53
Stony Island & 63rd Street,41.780472246,-87.58635116399999,"6,15,28"
Damen & 83rd Street,41.742807,-87.672839001,48
Halsted & 107th Street,41.699352421,-87.642743084,"8A,108"
Ashland & 43rd Street,41.815921225,-87.665232678,"9,X9"
Ashland & Wrightwood,41.928849487,-87.668406012,9
King Drive & 65th Street,41.776388,-87.61562000100001,3
Northwest Hwy & Oliphant,42.002731581999996,-87.81601157899999,68
Archer & Sacramento,41.816914198,-87.699442696,62
Wells & Jackson,41.878194,-87.63379300000001,37
Torrence & 106th Street,41.702847112,-87.55970671899999,71
83rd Street & Vincennes,41.743987428000004,-87.635670389,24
83rd Street & Holland,41.743477686999995,-87.63233925899999,24
8400 S Holland,41.741442044,-87.632118589,24
8500 S Holland,41.739098555,-87.632075503,24
8501 S Holland,41.739340221999996,-87.631830084,24
8401 S Holland,41.741216233,-87.63190363,24
83rd Street & Holland,41.743602921,-87.63251207,24
Damen & 59th Street,41.786725002,-87.674201826,48
55th Street & Kilpatrick,41.792944086,-87.73991155600001,55
75th Street & Lafayette,41.758046,-87.626593,75
51st Street & Cottage Grove,41.802190554,-87.60657937799999,15
87th Red Line Station,41.736161296999995,-87.624829279,87
43rd Street & Drexel,41.816776236,-87.603859169,43
Austin & Division,41.901899121999996,-87.77526960200001,91
Narragansett & Wrightwood,41.9273,-87.785489,86
Ridge & Glenwood,41.986659,-87.66492700100001,84
Kedzie & Touhy,42.011972223,-87.709142011,11
Avenue O & 134th Street,41.651894468,-87.539973247,30
LaSalle & Kinzie,41.889375625,-87.63236867399999,156
Ashland & Polk,41.871475089,-87.66667512299999,9
Cicero & Grand,41.914171597,-87.746133141,54
Western & Jarvis,42.015589833,-87.69013526100001,49B
Ashland & Cortland,41.916303961,-87.66793248,"9,X9"
Van Buren & Canal,41.876827481,-87.639380457,37
Irving Park & Oak Park,41.952809841,-87.796099204,80
Fullerton & Narragansett,41.923788858,-87.785284501,74
Division & Wells,41.903916906,-87.634920313,70
Madison & Sacramento,41.881088001,-87.701062001,20
North Ave & Long,41.909379,-87.761029001,72
Montrose & California,41.961194749,-87.698010896,78
Lawrence & Leclaire,41.96783793,-87.75514647,81
111th Street & Kedzie,41.69149952,-87.70096610799999,112
115th Street & Racine,41.684891164,-87.65196365799999,115
Chicago & Paulina,41.895951851999996,-87.669406917,66
Fullerton & Central,41.923873895999996,-87.765741604,74
Fullerton & Menard,41.923821495,-87.77095686,74
Grand & Narragansett,41.922446004,-87.78504053399999,65
79th Street & Pulaski,41.749396378,-87.721499666,"79,169"
Montrose & Long,41.96048,-87.762416,78
Garfield & King Drive,41.794412345,-87.616152395,55
Chicago & Rockwell,41.895616833000005,-87.69155691899999,66
Devon & Kedzie Terminal,41.99786612,-87.709526631,96
Pulaski & Bryn Mawr,41.982663961,-87.728528072,53
Milwaukee & Ashland (Blue Line),41.904029468000004,-87.667679228,56
North Ave & Lawndale,41.910094527,-87.71885412700001,72
North Ave & Wells,41.911186583,-87.634527366,"N9,72"
Cermak & Leavitt,41.852159739,-87.681153471,21
Diversey & Kilpatrick,41.931629576999995,-87.74401578700001,76
Damen & 83rd Street,41.742972379,-87.673049856,48
Milwaukee & Fullerton,41.924607519,-87.70030321700001,56
Ashland & 49th Street,41.805040559,-87.66499627700001,9
Archer & Lockwood,41.796956583000004,-87.75497022100001,"62,62H"
Armitage & Clark,41.918368308000005,-87.63626476299999,73
Belmont & Southport,41.939696781,-87.66399780200001,77
Belmont & Kostner,41.938891625,-87.737144676,77
87th Street & Stony Island (Nearside),41.736839192,-87.58580435799999,87
Avenue O & 116th Street,41.684709405999996,-87.539996659,30
Damen & Webster,41.9213,-87.677703001,50
LaSalle & Pershing,41.823952086999995,-87.62956819799999,"24,39"
47th Street & Halsted,41.808792067,-87.645697467,47
63rd Street & St. Louis,41.778892,-87.710132999,63
Montrose & Hamlin,41.961073854,-87.722825731,78
Addison & Pulaski,41.94643977,-87.72726221799999,152
North Ave & Sedgwick (Brown Line),41.911223107,-87.638419085,"N9,72"
63rd Street & Wentworth,41.780052023,-87.62998054200001,63
87th Street & Commercial,41.737443247,-87.551725754,87
Harrison & Halsted,41.874441001,-87.64775,"7,60,755"
Irving Park & Hamlin,41.95381454,-87.72255106200001,80
Cortland & Southport,41.917095,-87.66289000100001,73
Montrose & Ashland,41.96165552,-87.669587736,78
36th Street & Kedzie,41.828139531,-87.704365153,35
Madison & Western,41.881235,-87.686193,20
Armitage & Kedzie,41.917465985,-87.706788336,73
103rd Street & State,41.707234101,-87.62338393799999,103
103rd Street & Wood,41.706657506999996,-87.66701617700001,103
Higgins & Harlem,41.981294682,-87.807411802,90
State & Roosevelt,41.867593766999995,-87.627535851,"29,62"
Michigan & Cullerton,41.855340559,-87.623992666,"1,3,4"
Ashland & 76th Street,41.75592748,-87.663703529,9
Kedzie & Archer,41.813821329,-87.70429525799999,52
State & 18th Street,41.857537048000005,-87.627336398,"29,62"
Narragansett & Diversey,41.930830586999996,-87.78577606,86
Racine & Marquette Rd,41.772435637,-87.65439757,44
Ashland & Wellington,41.935957908,-87.668629684,9
Broadway & Hollywood,41.985508,-87.660240999,36
Damen & Archer,41.831917884,-87.675396472,50
Wacker (Upper) & Wabash,41.887544036,-87.626486947,"2,6,10,134,135,136,146,148"
King Drive & 26th Street,41.845454761,-87.617768107,3
87th Street & Dorchester,41.736912,-87.590098001,87
Wentworth & Marquette Rd,41.772583514000004,-87.629868817,24
Broadway & Wilson,41.965591241999995,-87.657475423,36
Vincennes & 75th Street/Yale,41.758213005,-87.63147531,24
King Drive & 79th Street,41.750920812,-87.61503894299999,3
Belmont & Western/Clybourn,41.939387554,-87.68763835899999,77
Broadway & Addison,41.947014091999996,-87.647152294,36
Western & 69th Street,41.768452161,-87.683494715,"49,X49"
Addison & Central,41.945815962,-87.766525361,152
Garfield Red Line Station,41.794115455,-87.63104441899999,"24,55"
Clinton & Washington,41.883314001,-87.641313,"125,130"
Ogden & Sacramento,41.85921125,-87.70113114899999,18
Ashland & 49th Street,41.805071341,-87.66474943899999,9
Grand & Hamlin,41.904188212,-87.721594415,65
Roosevelt & Blue Island,41.86693795,-87.653605289,12
Irving Park Brown Line Station,41.954102727,-87.67486629,80
63rd Street & Woodlawn,41.780460051999995,-87.59628913600001,63
Foster & Long,41.975095,-87.762865,92
26th Street & Albany,41.844495,-87.702673999,60
Montrose & Kilbourn,41.960714416,-87.74118034799999,78
Irving Park & Menard,41.953018473,-87.772007484,80
Roosevelt & Ashland,41.866733533,-87.665878888,12
Irving Park & Sheridan,41.954418545,-87.654688043,80
Belmont & Sheridan,41.94004911,-87.639772408,"77,151,156"
Fullerton & Sacramento,41.924702,-87.702422001,74
47th Street & Homan,41.808004274,-87.70849809399999,47
Belmont & Central Park,41.939148529,-87.71746099200001,77
Madison & Cicero,41.880392368,-87.744967805,20
115th Street & Homan,41.684124635,-87.705526659,52A
Central & Irving Park,41.953320856,-87.767095883,85
Cermak & Michigan,41.852748706999996,-87.62354146700001,"3,21"
Jackson & Halsted,41.877889802,-87.646966577,126
55th Street & Menard,41.792578000000006,-87.767290999,"55A,55N"
Roosevelt & Clark,41.867489773,-87.630837784,"12,18,N62"
Van Buren & Ogden,41.87632903,-87.671876466,126
51st Street & State,41.802016113,-87.625698772,15
Grand & Fairbanks/Columbus,41.891861999999996,-87.620009,"2,29,65,66"
67th Street & St. Lawrence,41.773115976999996,-87.610392854,"N5,67"
Taylor & Loomis,41.869396877,-87.66149317899999,157
Illinois & Clark,41.890758,-87.631278999,65
Montrose & Central,41.960415254000004,-87.767368014,78
Pulaski & 107th Street,41.698652,-87.72067,53A
Cottage Grove & 101st Street,41.710963773,-87.605808734,"4,115"
Northwest Hwy & Oketo,41.999928976999996,-87.81160016700001,68
Halsted & 52nd Street,41.799837144,-87.645393383,8
Halsted & 60th Street,41.785302308,-87.64501719100001,8
Central Park & 18th Street,41.857221,-87.71522,82
Western & Arthur,41.999618,-87.689998999,49B
Kedzie & 15th Street,41.861232001,-87.705443,52
Kimball & Dickens,41.919084000000005,-87.711854,82
Narragansett & Waveland,41.947403,-87.786241999,86
Damen & Hubbard,41.889636001,-87.676785,50
Central & Schubert,41.929361001,-87.766099,85
Kedzie & 62nd Street,41.780712499,-87.70312583,"52,52A"
Cicero & 64th Street,41.776433532,-87.742070266,"54B,165"
Cicero & 46th Street,41.809367492,-87.74301803600001,54B
Stony Island & 64th Street,41.778764028000005,-87.58633138100001,"6,15,28"
Pulaski & Altgeld,41.92623003,-87.72672262399999,53
Cicero & 65th Street,41.774691361,-87.741993155,54B
Sacramento & Ohio,41.891803151,-87.70190198,94
Harlem & 61st Street,41.780856,-87.800915,62H
Sedgwick & Eugenie,41.912757599,-87.63856635100001,37
Ewing & 110th Street,41.695362209,-87.535164296,30
King Drive & 85th Street,41.740209332,-87.614471621,3
Damen & Cortland,41.915875638,-87.677499269,50
8200 N Niles Center,42.02977215,-87.75331606600001,97
5061 N Pulaski,41.973521999999996,-87.728019999,53
5300 N Pulaski,41.977570512,-87.728195411,53
Cicero & Pershing,41.822327243000004,-87.74336636,54B
Pulaski & Erie,41.892735409000004,-87.725904162,53
Ridgeland & Iowa,41.896298,-87.784802,86
Pulaski & 82nd Street,41.743957428,-87.721536451,53A
Austin & Cornelia,41.943845,-87.776348,91
State & 40th Street,41.821713001,-87.62629,29
Harlem & Summerdale,41.977795365,-87.80689258700001,90
King Drive & 86th Street,41.738367331999996,-87.614405623,3
Cicero & Cornelia,41.944617708,-87.74688435,54
Austin & Cullom,41.95843,-87.776883001,91
Central & Catalpa,41.981033001,-87.768304999,"85,85A"
Pulaski & 30th Street,41.838635,-87.724319,53
Grant & Grey,42.059086623,-87.702116212,205
Lawrence & Courtland,41.966575485999996,-87.83147139299999,81W
69th Street & Peoria,41.768749015,-87.647040725,67
65th Street & Central,41.77429632,-87.76168061799999,165
Kimball & Palmer,41.92109,-87.712057999,82
Ridge & Wayne,41.985575158,-87.663124037,84
Ashland & Pershing,41.823426213000005,-87.665264813,"9,X9"
Archer & Cicero,41.798731742,-87.743336489,"62,62H"
Racine & 47th Street,41.808540916,-87.655330464,44
Broadway & Bryn Mawr/Ridge,41.983869613,-87.660185885,36
Broadway & Wellington,41.936578999999995,-87.644362,36
69th Street & State (Red Line),41.76910793,-87.62527051100001,169
Jackson & Hamlin,41.877210504000004,-87.721048023,126
Addison & Laramie,41.946016801999995,-87.75675318799999,152
Addison & St. Louis,41.946593704,-87.715061375,152
Canal & 26th Street,41.845603091,-87.638245702,44
Michigan & Jackson,41.878135001,-87.624193,"3,4,6,J14,26,143"
Cicero & Wellington,41.935106737,-87.746597076,54
California & 63rd Street,41.779276137,-87.693326561,94
Ashland & 81st Street,41.746924752,-87.663216604,9
Western & 69th Street,41.768220451,-87.68320658399999,"49,67,94,X49"
California & 42nd Street,41.817309279,-87.694345085,94
Racine & Garfield,41.794467556,-87.654794075,44
Central & Lawrence,41.967686252,-87.76738701200001,85
Cottage Grove & Marquette Rd,41.774872719,-87.60569198600001,4
Cicero & Maypole,41.884361001,-87.74534099899999,54
Harrison & Central Park,41.873474367,-87.71555644600001,7
Grand & Franklin,41.891507383000004,-87.63563347899999,65
Irving Park & Southport,41.954273599000004,-87.664341904,"9,80"
87th Street & Dorchester,41.736804475,-87.590641734,87
Foster & Tripp,41.975396294,-87.73447122,92
Lawrence & Western,41.968536516,-87.689141855,81
Montrose & Kimball,41.961071000000004,-87.713245,78
59th Street & Sacramento,41.786275273,-87.698172273,59
Roosevelt & Loomis,41.866810805,-87.66133342299999,12
59th Street & Halsted,41.78695303,-87.64510502799999,59
55th Street & Laramie,41.792823411,-87.752138945,"55A,55N"
Fullerton & Melvina,41.923691997,-87.780615935,74
Pershing & King Drive,41.823754637,-87.617350229,39
119th Street & Wentworth,41.677916386999996,-87.627568924,119
North Ave & Ashland,41.910556568000004,-87.667877734,72
95th Street & Leavitt,41.720889214,-87.67735639,95
Lawrence & Austin/Mason,41.967586664,-87.776928052,"81W,91"
Montrose & Menard,41.960354001,-87.77225200000001,78
35th Street & Wallace,41.830750935,-87.640968539,35
111th Street & Bell,41.69174656,-87.677688959,112
Lunt & Western,42.008656405,-87.68995666200001,96
Clinton & Jackson,41.878140001,-87.64115100000001,"7,60,126,157"
Ogden & Taylor,41.868931966999995,-87.68084430799999,12
Foster & Kostner,41.975483066,-87.738211471,92
Addison & Melvina,41.94566,-87.781481999,152
Ashland & Garfield,41.794148873000005,-87.66443237799999,"9,X9"
Kimball & Montrose,41.961042,-87.713061,82
Western & 59th Street,41.786289036,-87.68396368799999,"49,X49"
103rd Street & Michigan,41.707286313000004,-87.620041179,106
Belmont & Harlem,41.938068465,-87.80647019700001,77
Armitage & Kostner,41.917109391,-87.736172203,73
Jackson & Kedzie,41.87739519,-87.706278115,126
79th Street & Kenwood,41.75148299,-87.591741289,79
Fullerton & Kilbourn,41.924419121999996,-87.738914059,74
Chicago & Menard,41.894849923,-87.770609181,66
55th Street & Cicero,41.793187288,-87.742650326,"55A,55N"
103rd Street & Wentworth,41.707163711999996,-87.62867584700001,103
Armitage & California,41.917552961999995,-87.697034074,73
Roosevelt & California,41.866605987,-87.69620946299999,12
43rd Street & Drexel,41.816898977,-87.60458649600001,43
95th Street & St. Lawrence,41.722077669,-87.609220559,"N5,95,100,115"
119th Street & Loomis,41.677669941,-87.656386379,119
115th Street & Watkins,41.684794389000004,-87.66608270299999,111
Irving Park & Fremont,41.954599230999996,-87.65200367899999,"80,X9"
Jackson & Karlov,41.877107645,-87.728195509,126
Chicago & Sangamon,41.896391854,-87.651707977,66
Montrose & Linder,41.960634751,-87.764651225,78
87th Street & Kostner,41.734798305,-87.73099759899999,87
Addison & Forest Preserve Avenue,41.9450165,-87.825614695,152
87th Street & Ashland,41.735675527,-87.662562002,87
Pershing & Kedzie,41.822521588,-87.70463902899999,39
106th Street & Avenue O,41.702679205,-87.540248568,"26,100"
Lawrence & Hamlin,41.968197944,-87.723249265,81
87th Street & Lawndale,41.734871454,-87.714194244,87
Clark & Howard,42.019185166999996,-87.676325275,"22,97,201,205,206"
Cicero Blue Line Station,41.871613955,-87.74506329,54
Chicago & Austin Terminal,41.894925531999995,-87.77484321,66
Cottage Grove & 37th Street,41.827829075,-87.608965719,4
Milwaukee & Armitage,41.917707001,-87.688967999,56
Jeffery & 67th Street,41.773154235,-87.57657822799999,"J14,15"
Halsted & Milwaukee/Grand (Blue Line),41.891455554000004,-87.647708659,"8,132"
Lincoln & Bryn Mawr,41.983049115,-87.694736095,11
Archer & Lavergne,41.798059267,-87.74767867,"62,62H"
Ashland & 57th Street,41.790455531999996,-87.664633149,9
Ashland & Irving Park,41.954090956,-87.669172323,"9,X9"
Jackson & Austin Terminal,41.876321843,-87.774104816,126
Clark & North Ave,41.911311231,-87.631868918,"22,36"
Cottage Grove & 47th Street,41.809648994,-87.606677356,4
Milwaukee & Irving Park/Cicero,41.953581000999996,-87.747702999,56
Laramie & Washington,41.882265999999994,-87.755065,57
4900 S State,41.805807488,-87.625876117,29
Sheridan & Rosemont,41.996592,-87.65550299899999,"136,147,151"
Kedzie & 79th Street,41.749643156,-87.702308193,52A
Pershing & Cottage Grove,41.824050204,-87.60677568,39
Chicago & Grand,41.895706206,-87.699745804,"52,66"
59th Street & Morgan,41.787019504,-87.649696871,59
Roosevelt & Spaulding,41.866449709,-87.70792593600001,12
75th Street & Stony Island,41.758823846,-87.58556165899999,75
63rd Street & Knox,41.778535841,-87.738456788,63
Grand & Division,41.902620833,-87.717299537,65
Clark & Wilson,41.96502865,-87.666773616,"22,78"
State & 53rd Street,41.798392033,-87.625683201,29
Ashland & Roscoe,41.943168913,-87.66861633799999,9
Cottage Grove & 95th Street,41.72240198,-87.60436027700001,"4,N5,95"
Austin & Irving Park,41.95293517,-87.77667787,91
King Drive & 26th Street,41.845508001,-87.617219999,3
Damen & Armitage,41.917657872,-87.677523292,50
Narragansett & Berteau,41.956456447,-87.786581973,86
Ashland & 76th Street,41.755702408000005,-87.663447321,9
Kedzie & Harrison (Blue Line),41.873582622,-87.70579833299999,52
Austin & Diversey,41.931086766,-87.775835916,91
Ashland & 14th Street,41.863157481,-87.666161265,9
Halsted & Chicago,41.896715782,-87.647600504,"8,132"
Nagle & Higgins,41.976470403,-87.787762425,"86,91"
Orleans & Grand,41.891742143,-87.636929023,"37,125"
Damen & Grace,41.950421999999996,-87.678577999,50
Broadway & Rosemont,41.996229125,-87.660330174,36
Damen & 33rd Street,41.833939001,-87.675298001,50
Sheridan & Arthur (Red Line),42.000382087,-87.660600587,"147,155"
Pulaski & Lake (Green Line),41.885376398000005,-87.725699992,53
Western & Granville,41.993997,-87.689681001,49B
Pulaski & Milwaukee,41.940882,-87.727138,53
Sheridan & Thorndale,41.990272001,-87.655307999,"136,147,151"
Pulaski & Arthington,41.869921592,-87.72521740299999,53
Madison & Hamlin,41.880865538,-87.720978156,20
Pershing & Normal,41.823629642,-87.638514624,39
Indiana & 41st Street,41.820320231,-87.621374585,39
26th Street & Pulaski,41.844321275,-87.724823551,60
Ashland & North Ave,41.910792683000004,-87.667540124,"9,X9"
Pulaski & Elston,41.95984955,-87.72771186799999,53
Northwest Hwy & Ozark,42.005248869,-87.820249927,68
Damen & Lawrence,41.968634899,-87.679072101,50
Lafayette & 71st Street,41.765324017,-87.62664517399999,29
Milwaukee & Addison,41.946388103000004,-87.73598605,56
Ashland & Milwaukee (Blue Line),41.903734,-87.667365,"9,X9"
Ridge & Glenwood,41.986653999999994,-87.665155001,84
LaSalle & Goethe,41.90557247,-87.633113306,156
Kedzie & 77th Street,41.753378999999995,-87.70245600000001,52A
Lake Shore & Schiller,41.908064001,-87.625759999,151
Narragansett & Wellington,41.934734000000006,-87.785876999,86
Ridge & Wayne,41.985830951,-87.66380184,84
Blue Island & Damen,41.848572308,-87.675397263,60
Central & Lake,41.887873563,-87.765041556,85
Ashland & Armitage,41.917828001,-87.667794001,9
Kimball & Elston,41.949253000000006,-87.712713,82
Damen & Taylor,41.869229983000004,-87.67637797100001,50
Milwaukee & Central Park,41.934758229,-87.716885311,56
Archer & Kostner,41.800279899,-87.73309783100001,62
Stony Island & South Chicago/79th Street,41.751213191,-87.586004601,28
Loomis & Cermak,41.852532996,-87.661257871,60
Cicero & Madison,41.880231781999996,-87.74537109299999,54
Pulaski & 26th Street,41.844379383,-87.72464904,53
Lake Shore & Grace,41.952057768,-87.645113792,"135,146,151,152"
Lincoln & Winnemac,41.972931,-87.691278,11
Irving Park & Keeler,41.953698771,-87.732841855,"54A,80"
Armitage & Leclaire/Grand,41.916905565,-87.753279075,73
Western & North Ave,41.910476884,-87.687096635,"49,X49"
Cermak & Halsted,41.852737356999995,-87.646622749,21
Irving Park & Melvina,41.953054591,-87.781588054,80
Grand & Normandy,41.923697702,-87.792687035,"65,74"
119th Street & Halsted,41.677877105,-87.642255366,"119,8A"
Armitage & Cicero,41.917005639,-87.74591512,73
Congress & Keeler,41.874386206,-87.730614088,7
51st Street & St. Lawrence,41.802205857,-87.61116328799999,15
Chicago & Kostner,41.895257234,-87.736235457,66
Grand & California,41.894236,-87.69623900100001,65
Irving Park & Menard,41.953221338,-87.77179216,80
Fullerton & Rockwell,41.924961341,-87.69237395299999,74
Diversey & Menard,41.931286854,-87.770972295,76
79th Street & California,41.750015000000005,-87.692447001,79
63rd Street & Lawndale,41.778845269,-87.71559123200001,63
Cermak & Keeler,41.851654243,-87.729890129,21
Lawrence & Elston,41.968193457,-87.740126198,81
Commercial & 96th Street,41.72086969,-87.550966051,71
Kedzie & 110th Street,41.693395,-87.700793999,52A
Pulaski & 13th Street,41.864259387,-87.725022943,53
Homan & Maypole,41.883485349000004,-87.71099775100001,82
Ewing & 105th Street,41.70450357,-87.535185557,"26,30"
Austin & Railroad Ave (Blue Line),41.870322001,-87.774232,91
Cottage Grove & 106th Street,41.701876855,-87.607686733,"4,115"
Avenue B & 107th Street,41.700794259,-87.52569948,100
Central & George,41.933016001,-87.766227,85
Navy Pier Terminal,41.892331936,-87.609994163,29
Lake Shore & Scott,41.904949001,-87.625024001,151
Lake Shore & Brompton,41.947796905,-87.642918869,"135,146,151"
Cicero & Ohio,41.891625625,-87.74559743100001,54
State & Van Buren,41.876847667,-87.62754253799999,"2,10,29,130,146,147,148"
Broadway & Argyle,41.973368296,-87.65964820200001,36
Sheridan & North Shore,42.003870995,-87.66071682100001,"147,155"
Kedzie & 47th Street,41.807940255,-87.70385679399999,"47,52"
Racine & Roosevelt,41.867263105999996,-87.656598375,60
State & 47th Street,41.809080001,-87.625970001,29
Central & Fulton,41.885581821,-87.764955626,85
Damen & Division,41.903421804000004,-87.677164458,50
Cottage Grove & 59th Street,41.787631317,-87.605972235,"2,4"
Loomis & Blue Island,41.857622938,-87.66123266700001,60
Michigan & 8th Street,41.871786839,-87.62403400299999,"1,3,4"
Nagle & Bryn Mawr,41.982800272,-87.787625135,"86,91"
Clark & 18th Street,41.857672069,-87.63011176799999,24
Nagle & Foster,41.975568130999996,-87.787795593,"86,91"
Racine & 81st Street,41.746787774,-87.653560631,44
Kedzie & Jackson,41.877241,-87.705938,52
Dearborn & Hubbard,41.889937581,-87.62950028799999,"22,36"
Central & Wellington,41.934841,-87.76629,85
Cumberland & Catherine,41.977129999999995,-87.836528999,81W
Western & Fullerton,41.925075185,-87.68751948399999,"49,X49"
California & Diversey,41.93239667,-87.697529983,52
Western & 16th Street,41.859817577,-87.685723614,"49,X49"
55th Street & Kilpatrick,41.793164921999995,-87.73998806799999,55
Madison & Austin,41.880198016,-87.774488283,20
Wilson & Broadway (Red Line),41.965452933,-87.65816430299999,78
Diversey & Narragansett,41.931073183,-87.785561255,76
California & Logan,41.928125306999995,-87.697600794,52
Commercial & 87th Street,41.737483048,-87.551510421,"N5,26,71"
Sheridan & Granville,41.994419,-87.655598,"136,147,151"
Ashland & 95th Street,41.721379013,-87.66284023700001,"9,X9"
Washington & Halsted,41.883070801,-87.64669494600001,"19,20"
103rd Street & Talman,41.706277214,-87.68784619,103
103rd Street & State,41.707094852,-87.623671051,103
51st Street & Michigan,41.801964179,-87.62253139399999,15
51st Street & Halsted,41.801510597,-87.645529072,51
Addison & Racine,41.947091727,-87.65890761200001,152
55th Street & California,41.793623224,-87.693690194,55
87th Street & Aberdeen,41.736067227,-87.65077833,"24,87"
Belmont & Oak Park,41.938096,-87.795797,77
95th Street & Loomis,41.721213411,-87.657563824,"N9,95"
Chicago & LaSalle,41.896517691999996,-87.63295213299999,66
87th Street & Greenwood,41.73669466,-87.59714192,87
Lawrence & Damen,41.968671945,-87.679349916,81
900 W Taylor,41.869484,-87.648754,157
Clark & Harrison,41.874404,-87.630589999,24
California & Pratt,42.004758,-87.699748999,93
Kimball & Addison,41.946462169,-87.71261920200001,82
Western & Grand,41.890871345,-87.68657188,"49,X49"
Ashland & Hollywood,41.98525531,-87.669735889,50
Western & Armitage,41.917462478000004,-87.68728053,49
Clark & Division (Red Line),41.903782,-87.63136299899999,22
Cottage Grove & 82nd Street,41.745779531,-87.60493006,4
California & 24th Boulevard,41.848175145,-87.695258995,94
Austin & Lake,41.888171727,-87.77482935399999,91
Cicero & Palmer,41.920834544,-87.746059405,54
California & 59th Street,41.786317993000004,-87.693495398,94
Cicero & School,41.940559701,-87.746796015,54
King Drive & 69th Street,41.769472273000005,-87.61527724,3
Pulaski & Marquette Rd,41.771252075,-87.722426864,53A
Michigan & 100th Street,41.71258366,-87.620010956,"34,103,106,119"
Wallace & 26th Street,41.845293,-87.641406,44
California & 31st Street,41.837308521,-87.69493167,94
Harlem & Belmont,41.937802709,-87.80664860700001,90
Pulaski & Belmont,41.939318284,-87.72709926600001,53
103rd Street & Oglesby,41.708148162,-87.56561981700001,"15,26"
71st Street & State,41.765570000000004,-87.62464200000001,71
Lunt & California,42.008505187,-87.699644815,96
North Ave & Ashland,41.91069828,-87.66798959100001,72
Gunnison & Austin,41.968586427,-87.778721016,81W
103rd Street & King Drive,41.707384276999996,-87.613621941,"34,106"
51st Street & Albany,41.800897,-87.701399999,51
Harrison & Lotus,41.872919756,-87.761775578,7
79th Street & Laflin,41.75046361,-87.66093913899999,79
Oakton & Kenton,42.026335492,-87.74258507399999,97
Lunt & Greenview,42.009182161999995,-87.668071708,96
Malcolm X College,41.876242,-87.674056999,126
95th Street & Greenwood,41.722257825999996,-87.597185135,100
Grand & Lockwood,41.917438488,-87.75829718799999,65
79th Street & Perry,41.750964108000005,-87.627279145,79
Harrison & Leamington,41.873053520999996,-87.753201227,"7,57"
92nd Street & Commercial,41.728311207,-87.551053077,"30,9E"
79th Street & Indiana,41.751078000999996,-87.619553,79
Montrose Brown Line Station,41.961557811,-87.675154745,78
Addison & Western,41.946799753,-87.688026617,152
106th Street & Ewing,41.702797081,-87.535566371,100
Roosevelt & Kostner,41.866104064,-87.734797645,12
Sheridan & Pratt,42.005364001,-87.66099799999999,"147,155"
Central & Fulton,41.885846888,-87.765165467,85
King Drive & 71st Street,41.765562,-87.615323,3
Damen & Cermak,41.852279444000004,-87.67593148899999,50
Homan & Madison,41.881099224,-87.71110069299999,82
Pulaski & 28th Street,41.840473591999995,-87.72452137299999,53
Pulaski & 59th Street,41.7860482,-87.72311805,53A
Central & Wrightwood,41.92747519,-87.766189177,85
Milwaukee & Irving Park/Cicero,41.953264436,-87.746953511,56
Clinton & Harrison,41.874518001,-87.641044,"7,157,60"
Pulaski & North Ave,41.90961755,-87.72653024600001,53
Western & Lawrence,41.968356238,-87.689071078,"11,49,49B,X49"
Commercial & 95th Street,41.722875087,-87.55116627299999,71
Halsted & 79th Street,41.750754199,-87.644145896,"8,169"
South Chicago & 79th Street/Stony Island,41.751358549,-87.58519126899999,30
Milwaukee & Belmont,41.939035545,-87.723466887,56
Ashland & 81st Street,41.746780053,-87.663477936,9
Homan & Jackson,41.877428613,-87.71099052299999,82
State & 79th Street,41.751456829,-87.62448715,"29,75"
Central Park & 31st Street,41.836968,-87.714507001,82
Ogden & California,41.861080343000005,-87.69590940299999,18
California & Bryn Mawr,41.983033,-87.699079,93
Damen & 57th Street,41.790240638,-87.67402760899999,48
Pulaski & 43rd Street,41.815419651,-87.72373264,53A
Halsted & Garfield,41.794536774,-87.64507152600001,8
Cottage Grove & 71st Street/South Chicago,41.766173001,-87.605469927,4
Cicero & Grace,41.949762082,-87.747005919,54
Lincoln & Webster,41.922209701,-87.64410791899999,74
Halsted & Cermak,41.852459300999996,-87.64657701,"8,N62"
Archer & Lawndale,41.806573966,-87.71627198,62
Milwaukee & Leavitt,41.913594931999995,-87.68231991299999,56
Milwaukee & Higgins,41.96900846,-87.76184809200001,"56,81,81W,91"
Kimball & Elston,41.949043185,-87.712845858,82
Damen & Wilson,41.965193411,-87.679172746,50
Damen & Roscoe,41.943296000000004,-87.678522,50
Ashland & Adams,41.878968930999996,-87.66687951600001,9
Western & 26th Street,41.844909734,-87.68559876200001,"49,X49"
Austin & 63rd Street,41.777934,-87.771564,55A
Damen & Armitage,41.917854487,-87.677713994,50
Wells & Ontario,41.893249349,-87.63419167200001,37
Western & 63rd Street,41.779029414,-87.683783025,"49,X49"
Pulaski & Milwaukee,41.941410999999995,-87.72732999899999,53
Austin & Diversey,41.931212,-87.776032,91
Western & 31st Street,41.83911,-87.685290001,49
Belmont & Milwaukee,41.939061532,-87.723983992,77
92nd Street & Commercial,41.728184174,-87.551339631,"30,9E"
59th Street & Morgan,41.786895783,-87.64995659799999,59
Yale & 63rd Street,41.780100894,-87.63185496700001,24
Wentworth & 73rd Street,41.761973001,-87.62975300000001,24
Cottage Grove & 111th Street,41.693101025,-87.609665644,"4,115"
Golf Road & Waukegan (Avon),42.054878343,-87.79790344799999,X98
Belmont & Narragansett,41.938251335,-87.78565251200001,77
Belmont & Sacramento,41.939433445,-87.703069688,77
Belmont & Sayre,41.938131258,-87.801577958,77
Grand & Oak Park,41.923666298,-87.795435445,"65,74"
Diversey & Lavergne,41.931409,-87.75160100000001,76
Archer & Nashville,41.792184999999996,-87.786791001,"62,62H"
Lake Shore Drive & Belmont,41.940363765,-87.638927973,"135,146"
State & 29th Street,41.841728,-87.62655700100001,29
Halsted & 51st Street,41.801442,-87.645259,8
Racine & 14th Street,41.863524376,-87.65665712299999,60
Pulaski & Irving Park,41.953488086,-87.727709763,53
Cicero & Elston,41.973083996999996,-87.748025379,54A
California & Diversey,41.931938191,-87.697711301,52
Ashland & 85th Street,41.739516609,-87.663287258,9
Damen & Webster,41.921465999999995,-87.677847999,50
Marine Drive & Wilson,41.965599746,-87.64871277299999,"136,146"
Kedzie & 19th Street,41.85549,-87.705422,52
Austin & Irving Park,41.953163024,-87.776870843,91
Austin & Jackson,41.876342742,-87.77453903700001,91
King Drive & 76th Street,41.756472238,-87.61517512299999,3
Cicero & Diversey,41.93163698,-87.746739125,54
Broadway & Lawrence,41.969157111,-87.659790455,36
Cottage Grove & 85th Street,41.74035502,-87.60501796,4
Pulaski & Archer,41.80178737,-87.723555461,53A
Western & 24th Street,41.848484333,-87.685662094,49
State & Maple,41.901984999999996,-87.62842999899999,36
Western & Montrose,41.961419405,-87.688823682,"49,X49"
Damen & Division,41.903022113,-87.677328214,50
LaSalle & Oak,41.900327000000004,-87.632941999,156
Milwaukee & Central,41.976443094000004,-87.768269907,"85,85A"
Wentworth & 43rd Street,41.816229588,-87.631250278,"24,43"
State & Harrison/Congress,41.874996734,-87.627696011,"2,6,10,29,62,130,146,148"
King Drive & 37th Street,41.827403763,-87.61717808799999,3
Ridge & Ardmore,41.988176181,-87.66762667799999,84
Lawndale & 31st Street,41.837103458,-87.717107325,82
Clark & Wellington,41.936514761,-87.64802165399999,22
California & Augusta,41.899390527,-87.69688044899999,52
Lake Shore & Melrose,41.941284063000005,-87.639669936,151
Homan & Congress,41.874632,-87.710859,82
Fairbanks & Erie,41.894081,-87.620224001,"3,66,120,121,157"
Michigan & 100th Street,41.712487268000004,-87.62023105799999,"34,103,106,119"
Ashland & 83rd Street,41.743246577,-87.66340003399999,"9,X9"
Narragansett & Irving Park,41.953041413,-87.78665811299999,86
Central & Race,41.889379001,-87.765246999,85
Kedzie & Franklin,41.889642126999995,-87.70647759299999,52
Ashland & 14th Street,41.8631206,-87.666426896,9
Damen & Adams,41.878569843,-87.676667541,50
Central & Chicago,41.894958665,-87.765490556,85
Ashland & Erie,41.893433348,-87.667339426,9
Kedzie & 28th Street,41.840957509,-87.70501113799999,52
Commercial & 91st Street,41.729910244,-87.551330166,"N5,71"
Archer & Pope John Paul II/43rd St,41.815649854,-87.701539296,62
Damen & Milwaukee/North Ave,41.910630467,-87.67755873700001,50
Cicero & Lake (Green Line),41.886775461999996,-87.74559453200001,54
Ashland & Diversey,41.932172292,-87.668527064,"9,X9"
Cicero & Wellington,41.934862735,-87.746866022,54
Michigan & 16th Street,41.859944612,-87.624094177,"1,3,4"
Milwaukee & Armitage,41.917725377,-87.688712272,56
Laramie & Washington,41.882431,-87.75520999999999,57
Pulaski & Ainslie,41.969958717,-87.727984555,53
Michigan & 34th Street,41.832755,-87.623356999,"1,4,35"
Rogers & Paulina,42.017447505999996,-87.672421399,147
Ridgeland & Augusta,41.898303043,-87.78502674799999,86
Clark & Chase,42.013662001,-87.674752001,22
Pulaski & 70th Street,41.765808521,-87.72226335100001,53A
Central & Sunnyside,41.962413001,-87.767368999,85
State & 65th Street,41.776284821,-87.625334049,29
Clark & Madison & Monroe,41.881380895999996,-87.6309716,"22,24"
Grand & Christiana,41.899872955999996,-87.710396047,65
Archer & 33rd Street,41.833871235,-87.67214928799999,62
Pulaski & 70th Street,41.765991000999996,-87.722498999,53A
Pulaski & 65th Street,41.775090999999996,-87.722726,53A
Cottage Grove & 43rd Street,41.816576973000004,-87.60680028799999,4
California & Thomas,41.901183,-87.696914999,52
Western & Pratt,42.005138428,-87.69023418200001,49B
Kedzie & 77th Street,41.753545001,-87.702601,52A
Sheridan & Leland,41.967182,-87.654733,151
Clark & Belden,41.923809368,-87.63951870700001,"22,36"
Archer & Keeler,41.800832539,-87.72836178200001,62
King Drive & 75th Street,41.75859759,-87.61503501700001,3
Sheridan & Greenleaf,42.010572001,-87.662412,147
Jeffery & 95th Street,41.722349049,-87.575274868,"J14,15"
Pulaski & Avondale,41.950834277,-87.72764253700001,53
Clark & Webster,41.92185825,-87.63812875299999,"22,36"
63rd Street & Ellis,41.780526191,-87.601287967,63
California & Evergreen,41.905592771,-87.696806855,52
Harlem & Barry,41.936282001,-87.806609001,90
Cottage Grove & 38th Street,41.826226465,-87.607965385,4
Central & Cullom,41.958565,-87.767104001,85
Pulaski & Dickens,41.918866804000004,-87.726513925,53
9800 S Yates,41.717025246,-87.564577129,100
5000 S Kedzie,41.802659546,-87.703721305,"51,52,52A"
Cicero & Cortland,41.915229533,-87.745913413,54
Stony Island & 86th Street,41.738851341,-87.585220542,28
California & Arthur,41.999297,-87.699606999,93
Pulaski Orange Line Station,41.800089532,-87.724338171,62
Michigan (Lower) & Illinois,41.890836901,-87.62399347200001,"120,121"
Michigan (Lower) & E. Wacker,41.888056202,-87.62445143299999,"120,121"
Michigan (Lower) & Illinois,41.891006082,-87.62429240200001,"120,121"
Michigan (Lower) & Hubbard,41.89018553,-87.62396733,"120,121"
Peterson & Target (2100 W),41.990509097,-87.683403579,84
Division & Campbell,41.902935821999996,-87.689640976,70
Irving Park & Leclaire,41.953230071,-87.754781437,80
79th Street & Hoyne,41.750130112,-87.67567670700001,79
63rd Street & Laflin,41.779445001,-87.661884,63
63rd Street & 73rd Avenue,41.777138078,-87.803384687,"62H,63W"
Addison & Oketo,41.945107001,-87.811931,152
Roosevelt & 47th Avenue,41.865858383,-87.74241064700001,12
2135 W 51st Street,41.801172001,-87.678834999,51
Irving Park & Overhill,41.952422304,-87.819483454,80
71st Street & Langley,41.765735291999995,-87.608649874,71
Madison & Leavitt,41.881174025,-87.68122248899999,20
67th Street & Stony Island,41.773268981,-87.586439015,"N5,67"
Grand & Chicago,41.895792814,-87.70052165799999,65
Ashland & Balmoral,41.979918342,-87.669845829,50
Milwaukee & Sunnyside,41.962398261,-87.755865646,56
Clark & Cermak,41.853057131,-87.63016745,24
Orleans & Hubbard,41.889821000000005,-87.636893,"37,125"
Western & Taylor,41.868871797,-87.68597557,"49,157"
Sheridan & Lunt,42.009358,-87.66199499999999,147
Broadway & Granville,41.994380513,-87.66051018200001,36
Halsted & Webster,41.921724732,-87.648536423,8
Halsted & Harrison,41.873835308000004,-87.647255045,8
Halsted & 91st Street,41.728690001,-87.643293,8A
Cicero & Montrose,41.960840419,-87.747683629,54A
Clarendon & Buena,41.958562,-87.649885,"135,148"
Ashland & 71st Street,41.76477885,-87.663640726,9
Damen & Marquette Rd,41.772003000000005,-87.673643,48
Laramie & Ohio,41.891328001,-87.75552899899999,57
Canal & Van Buren,41.876999999999995,-87.639438,"7,37,60,125,157"
Franklin & Jackson,41.877915259,-87.63510947200001,"134,135,136,156"
LaSalle & Division,41.903651738,-87.63305239700001,156
Clark & Touhy,42.012443354,-87.674696626,22
Adams & State,41.879508736999995,-87.628105295,"1,7,28,126,130,151"
47th Street & Archer,41.808046771,-87.71455604200001,47
16th Street & Western,41.859426839,-87.686037627,18
Grand & Sayre,41.923599034,-87.80051573600001,"65,74"
Jackson & California,41.877495847,-87.696483469,126
Montrose & Keeler,41.960963479,-87.73265309,78
Diversey & Paulina,41.932397544000004,-87.67083372799999,76
LaSalle & 43rd Street,41.816265,-87.62936999899999,"24,43"
Austin & Dickens,41.917813,-87.775438001,91
Sheridan & Argyle,41.973476,-87.65484999899999,151
Broadway & Ainslie,41.971635155,-87.659610321,36
Damen & Garfield,41.793471898,-87.67419001399999,48
Western & Berwyn,41.97786718,-87.68911810899999,49B
Pulaski & Grand,41.906001726,-87.72630127299999,53
Lake Shore & Division,41.904191,-87.624965999,151
California & Armitage,41.917396999999994,-87.69711600000001,52
Wentworth & 62nd Street,41.781513000000004,-87.63016500100001,24
Columbus (Mid) & E. Wacker,41.887356,-87.620595,124
111th Street & Morgan,41.692367611,-87.647062391,111
S. Water (Lower) & Michigan,41.886737036,-87.625295495,"120,121"
Kedzie Orange Line Station,41.804867042,-87.70458748899999,47
16th Street & Kilbourn,41.858609583,-87.737340575,18
103rd Street & Francisco,41.706194873,-87.694042972,103
Addison & Lockwood,41.945933826,-87.75942345700001,152
Church & Florence,42.048303607,-87.695109805,205
Armitage & Kilbourn,41.916961,-87.738877999,73
Belmont & Normandy,41.938136,-87.793373,77
79th Street & Calumet,41.751043973,-87.61665533899999,79
100th Street & Hoxie,41.713518245,-87.560737455,"J14,100"
Lawrence & Ravenswood,41.968742787,-87.67396809700001,81
43rd Street & Vincennes,41.816623412,-87.614175525,43
103rd Street & Eggleston,41.706974145,-87.633562966,103
74th Street & Paulina,41.759344,-87.666105,75
87th Street & Kilbourn,41.734488901999995,-87.733711036,87
63rd Street & Peoria,41.779637349,-87.647328185,63
63rd Street & Lawler,41.778247019,-87.748457425,63W
Foster & Lacrosse,41.975253539,-87.749366888,92
Old Orchard Rd & Lavergne,42.062437489000004,-87.751583986,"54A,205"
Belmont & Pioneer,41.93763271,-87.831119969,77
35th Street & Aberdeen,41.830586,-87.653444,35
Montrose & Hoyne,41.961357,-87.681512,78
61st Street & Langley,41.783949275,-87.608543394,59
Peterson & Sacramento,41.990341585,-87.704369912,84
75th Street & Kimbark,41.758628832,-87.59333997,75
Division & Springfield,41.902625001,-87.723968001,70
67th Street & Oglesby,41.773483498000004,-87.568485758,"6,26,67"
Pershing & Federal,41.823615572,-87.62840909100001,39
103rd Street & St. Lawrence,41.707324975,-87.608992407,106
Montrose & Major,41.960387,-87.769802,78
55th Street & Karlov,41.793126772,-87.725477464,55
119th Street & State,41.678078919,-87.622560389,119
87th Street & Kenton,41.734724987,-87.735898115,87
26th Street & California Boulevard,41.844763799999996,-87.694467927,60
103rd Street & Fairfield,41.706418672,-87.690160757,103
79th Street & Cregier,41.751604189,-87.58076729999999,79
Oakton & St. Louis,42.026383954,-87.71558719,97
79th Street & Karlov,41.749568091,-87.724526005,79
Devon & Hoyne,41.997896999999995,-87.68248900100001,155
Central Street & Hartrey,42.064437446,-87.703274416,"201,206"
Diversey & Seminary,41.932649854,-87.65642941200001,76
Cermak & Carpenter,41.852609949,-87.653402265,21
Cermak & Lumber,41.852770897,-87.641545478,21
Peterson & Lawndale,41.990282533,-87.72102078,84
71st Street & Paxton,41.766337,-87.571218,71
87th Street & Calumet,41.736557049,-87.616071176,87
Montrose & Ravenswood,41.961595,-87.67368899899999,78
Peterson & Campbell,41.990596139000004,-87.69204518299999,84
79th Street & Princeton,41.750875,-87.631848,"8A,24,79"
Oakton & Kostner,42.026290759,-87.737517508,97
Addison & Paris,41.945032068,-87.83023935799999,152
Peterson & Whipple,41.990514137,-87.705200936,84
Lunt & Hamilton,42.00893851,-87.683794959,96
Cicero & Dickens,41.918695984,-87.74602329700001,54
LaSalle & 46th Place,41.810642,-87.629902999,"24,43"
Cicero & 24th Place,41.846499361999996,-87.743979366,"54B,N60"
Harlem & 56th Street,41.790092,-87.801283,62H
Austin & Harrison,41.872684477,-87.774268678,91
Lawndale & 27th Street,41.842426,-87.717101001,82
Bronx & Davis,42.046190300999996,-87.75045403200001,"54A,97"
8000 S Pulaski,41.747796162,-87.72163039600001,"53A,79"
Broadway & Belle Plaine,41.956821999999995,-87.651957,36
Homan & Lexington,41.871733,-87.710647999,82
Homan & Ohio,41.891758001,-87.711264001,82
Austin & Roosevelt,41.865629,-87.774044999,91
Austin & Barry,41.936519,-87.776073,91
4000 S Cicero,41.820541031,-87.74335494399999,54B
2300 S Pulaski,41.849500215999996,-87.724594276,53
Jeffery & 70th Street,41.768123001,-87.57628000000001,"N5,15"
Cicero & Sherwin,42.014398535,-87.74776083799999,54A
Central & Belden,41.922111987,-87.765833433,85
Cottage Grove & 98th Street,41.716545921,-87.60435845,"4,115"
Kimball & Belle Plaine,41.955609001,-87.712886,82
Harlem & Wrightwood,41.927036479,-87.80623984799999,90
Harlem & School,41.939727000000005,-87.80673,90
Harlem & Ontario,41.890957007,-87.80499844299999,"90,307,318"
Broadway & Sunnyside,41.964046355,-87.65648649799999,"36,78"
31st Street & Spaulding,41.837271239,-87.707087211,35
Vincennes & 77th Street,41.754567,-87.633173,24
LaSalle & 33rd Street,41.834437001,-87.629855,"24,31"
Brainard & Baltimore,41.649448596999996,-87.54703702799999,30
Western Brown Line Station,41.966051861,-87.68855157200001,11
Belmont Red/Brown/Purple Line Station,41.939870098,-87.653062415,77
79th Street & Honore,41.750206301,-87.66960835299999,79
Clark & Drummond,41.930724589,-87.644020288,"22,36"
Harlem & Quick,41.890242473,-87.805234429,"90,307,318"
Navy Pier Terminal,41.892657133,-87.610003208,"2,124"
Halsted & 69th Street,41.768724686999995,-87.644420671,169
Cottage Grove & 57th Street,41.791208936,-87.60608168700001,"2,4,192"
79th Street & Vincennes,41.750724794,-87.63370271,24
Wentworth & 66th Street,41.774418,-87.629938,24
Central Street & Crawford,42.064669675,-87.72712907200001,"201,206"
Clark & Surf,41.934752012,-87.646301865,22
Harlem & Armitage,41.916112913,-87.805917895,"90,307"
Cicero & 72nd Street,41.761819351,-87.741577493,54B
State & 64th Street,41.777535,-87.62516700100001,29
Michigan & 104th Street,41.705272647,-87.62043575700001,"34,119"
Michigan & 101st Street,41.710736796999996,-87.619809805,"34,103,106,119"
Kimball & Belden,41.92275,-87.711968,82
Jeffery & 77th Street,41.755149194,-87.57597932899999,"J14,15"
Vincennes & Winston (10200 South),41.708551255,-87.65528733200001,112
California & 66th Street,41.773571000000004,-87.693138999,94
Chicago Avenue & South Blvd (Purple Line),42.027127349000004,-87.67805254299999,205
Dodge & Greenwood,42.042601278,-87.69897769200001,"93,206"
State & 80th Street,41.748982,-87.624425,29
Yates & 99th Street,41.715255956,-87.56455162700001,100
Jeffery & 74th Street,41.760903000999996,-87.57611800000001,"N5,15"
Austin & Sunnyside,41.962075,-87.777004999,91
Pulaski & 101st Street,41.70943445,-87.72083417700001,"53A,103"
Harlem & 58th Street,41.786431,-87.80117800000001,62H
Cicero & Barry,41.936917634000004,-87.74666759799999,54
Western & 95th Street,41.72147898,-87.681953367,95
Central & Armitage,41.916751,-87.765628,85
S. Shore Drive & 76th Street,41.759024995,-87.55554096799999,"N5,6,26,71"
3600 S King Drive,41.82919999,-87.617007905,3
California & 65th Street,41.775395001,-87.693182,94
Lake Shore & Aldine,41.942397952,-87.639893964,"135,146,151"
Kimball & Wisner/Wellington,41.935287328,-87.712297027,82
103rd Street & St. Louis,41.706192564,-87.70859295700001,103
47th Street & Oakley,41.808500788,-87.681856915,"47,48"
North Ave & Hoyne,41.910535077,-87.67976025700001,72
Division & Mayfield,41.902153499,-87.772805279,70
Lunt & Oakley,42.008705404000004,-87.68801666,96
Addison & Overhill,41.945286578,-87.81946734700001,152
63rd Street & 73rd Avenue,41.777335209,-87.803252271,"62H,63W"
Fulton & California,41.886607974,-87.696299897,94
103rd Street & Corliss,41.707553925,-87.60395425600001,"34,106"
103rd Street & Union,41.707015494000004,-87.640302102,103
69th Street & Aberdeen,41.768791139,-87.65167814899999,67
119th Street & Wallace,41.677923936,-87.636970855,119
Jackson & Albany,41.877409823,-87.703782689,126
65th Street & Menard,41.774388005,-87.76632824200001,165
87th Street & Union,41.736185838000004,-87.641097863,"24,87"
87th Street & Holland,41.736039526999996,-87.632824863,"24,87"
Devon & Campbell,41.997772704,-87.692202945,155
Irving Park & Oriole,41.952614834,-87.816965269,80
127th Street & Halsted,41.663304014,-87.641334413,"8A,108"
Irving Park & Albany,41.954044694000004,-87.705462385,80
100th Street & Hoxie,41.71362804,-87.561239933,100
63rd Street & Kildare,41.778698,-87.729887999,63
Irving Park & Overhill,41.952546677,-87.819370158,80
111th Street & Campbell,41.691836336,-87.683485178,112
Dodge & Simpson,42.055434753,-87.69897817799999,"205,206"
Wentworth & 51st Street,41.801670924,-87.630566056,24
LaSalle & 31st Street,41.838512,-87.62998,24
71st Street & Pulaski,41.764024,-87.722116999,67
63rd Street & Lawndale,41.778693704,-87.715242718,63
Chicago & Leavitt,41.895748593,-87.682069555,66
79th Street & Loomis,41.750361929,-87.658339985,79
16th Street & Albany,41.859055001,-87.703052,18
Lincoln & Peterson,41.990235747,-87.706878641,11
Homan & Chicago,41.895247216,-87.711517262,82
LaSalle & Division,41.904020224,-87.632784405,156
Halsted & Lake,41.885818919,-87.647411261,8
Narragansett & Bloomingdale,41.912685001,-87.785039,86
Halsted & Belmont,41.93989962,-87.64916374799999,8
Milwaukee & Wolcott/Wood,41.907480859,-87.67280549600001,56
Clark & Dickens,41.92021774,-87.63733630600001,"22,36"
Northwest Hwy & Austin,41.980596235,-87.77827134700001,68
Clark & Rogers,42.016117028000004,-87.67532832799999,22
Lincoln & Bryn Mawr,41.983247631,-87.695526288,11
State & 29th Street,41.842095001,-87.626915,29
Broadway & Victoria,41.987013,-87.660241001,36
Wentworth & 72nd Street,41.763775001,-87.629778,24
Vincennes & 82nd Street,41.745442001,-87.635665,"8A,24"
Ups Facility Stop 1,41.747603999999995,-87.884297,169
Sheridan & Briar,41.93857023,-87.639568723,"134,143,151,156"
Kimball & Montrose,41.961208,-87.713206999,82
State & 57th Street,41.791222999999995,-87.625683,29
Damen & 71st Street,41.764906778000004,-87.673637925,"48,94"
Broadway & Rosemont,41.996202789,-87.660559206,36
Pulaski & Palmer,41.92091292,-87.72676093700001,53
South Chicago & 76th Street,41.757006460999996,-87.59343540100001,30
Damen & Roosevelt,41.866987719,-87.67640629,"50,755"
State & Oak,41.900874,-87.628399,36
Pulaski & 31st Street,41.836986937,-87.724443873,53
King Drive & 81st Street,41.74733349,-87.614940686,3
Madison & Loomis,41.881587001,-87.66204,20
18th Street & Damen,41.857719565,-87.67586874700001,18
Roosevelt & State,41.867535630999996,-87.627827645,"12,18"
Chicago & Long,41.894931469,-87.76074174799999,66
Lawrence & Sacramento,41.968548176,-87.703868012,81
74th Street & Loomis,41.759574191999995,-87.659205129,75
Cermak & Wood,41.85229837,-87.670656145,21
79th Red Line Station,41.75111,-87.625199999,79
Devon & Leavitt,41.99788139,-87.68515816600001,155
Pershing & State,41.823785713,-87.626703375,39
Pulaski & Lawrence,41.968147988000005,-87.727921076,53
King Drive & 45th Street,41.813172376,-87.616508703,3
Homan & Franklin,41.889619577,-87.711119985,82
Halsted & 71st Street,41.765105612,-87.64432361700001,8
Kedzie & 111th Street,41.691470224,-87.70072914,52A
Cottage Grove & Pershing,41.824284754000004,-87.606979072,4
Sheridan & Granville,41.994775,-87.655447,"136,147,151"
Kedzie & 85th Street,41.738762,-87.70201299899999,52A
Western & Elston/Diversey,41.931937239,-87.68803463399999,"49,X49"
Cicero & 61st Street,41.782234425,-87.742587758,"54B,63,63W,165"
Jeffery & 93rd Street,41.725983613000004,-87.575514697,"J14,15"
Wallace & 26th Street,41.845249673000005,-87.64166709999999,44
Halsted & 78th Street,41.752499075,-87.644122279,8
Armitage & Spaulding,41.9173,-87.710368,73
63rd Street & Drexel,41.780376293,-87.60429231299999,63
103rd Street & Corliss,41.70743581,-87.60348147200001,106
Narragansett & Diversey,41.931160126,-87.78559919700001,86
Pulaski & Ferdinand,41.890045803,-87.72583367899999,53
Pulaski & Irving Park,41.953919735,-87.727544687,53
Ashland & Blackhawk,41.907113575,-87.66747749700001,9
Cicero & Hirsch,41.905894911,-87.74593133299999,54
Michigan & Van Buren,41.87669,-87.62416,"1,7,28,126"
Clark & Maple,41.901744,-87.631310999,"22,70"
Pulaski & 31st Street,41.837054001,-87.724265999,53
Kedzie & Douglas,41.863147144,-87.705487529,52
Clark & Lunt,42.008925037,-87.673856971,22
Cottage Grove & 91st Street,41.729274935,-87.60451851799999,4
Homan & Jackson,41.877182226,-87.710789262,82
King Drive & 76th Street,41.756674326,-87.614928213,3
Nagle & Northwest Hwy,41.986203386999996,-87.78760613200001,"86,91"
Cottage Grove & Oakwood,41.822575383,-87.606784818,4
Michigan & 11th Street,41.869144708,-87.62396449799999,"1,3,4"
Sheridan & Briar,41.938694242,-87.63942688,"77,134,143,151,156"
Cottage Grove & 76th Street,41.756680777,-87.605206225,4
State & 87th Street,41.73657371,-87.62407192799999,29
Central & Madison,41.880470135,-87.76476232200001,85
Clark & Bryn Mawr,41.983694177,-87.668710241,22
103rd Street & Lawndale,41.706116488,-87.713494585,103
4600 W 55th Street,41.793154107,-87.73783810200001,55
47th Street & Kilpatrick,41.80774394,-87.740621811,47
79th Street & Drexel,41.751363972,-87.60263701299999,79
930 E 95th Street,41.722156873,-87.600853751,100
Addison & Olcott,41.945218878,-87.814192102,152
59th Street & Keeler,41.785953229,-87.72774557,59
93rd Street & Oglesby,41.72626354,-87.566909814,"N5,95"
Wallace & 36th Street,41.829075184000004,-87.641338437,44
47th Street & Western Avenue,41.808373898,-87.684562541,"47,94"
Grand & Western,41.89056857,-87.686844274,65
Roosevelt & Independence,41.866148466,-87.720262455,12
95th Street & Ashland,41.721106727,-87.66294449799999,95
Irving Park & Marine Drive,41.954576555,-87.645479313,"80,135,148"
Lunt & Ashland,42.009107471,-87.669940077,96
Addison & Halsted,41.947370809,-87.649317449,152
115th Street & Central Park,41.684159825,-87.71008297700001,52A
Addison & Lincoln,41.947004746,-87.673496677,152
Madison & Ashland,41.881523,-87.666567,20
Diversey & Kostner,41.931770066999995,-87.73669616299999,76
Diversey & Central,41.931348446,-87.766103627,76
Division & Pulaski,41.902744808,-87.726098187,70
Taylor & Racine,41.869477875,-87.657007444,157
75th Street & Vincennes,41.758191545,-87.63166392,75
63rd Street & Kedzie,41.779045411,-87.703468716,63
Foster & Ravenswood,41.976162672,-87.674272283,"50,92"
Armitage & Kimball,41.917395103000004,-87.71218177899999,73
55th Street & California,41.793745001,-87.693894,55
Madison & Paulina,41.881490000999996,-87.66911299899999,20
Addison & Pulaski,41.946309678,-87.727074376,152
71st Street & Indiana,41.765553001,-87.62029300100001,71
Congress & Wabash,41.875768001,-87.625788,147
Milwaukee & Talman,41.920722373000004,-87.693569615,56
Wells & 58th Street,41.789008001,-87.63178,"24,59"
Dodge & Brummel,42.021317785,-87.699575759,"93,97"
Ashland & Elston,41.919052,-87.668386811,9
Lafayette & 84th Street,41.741918,-87.625651999,29
Lake Park & 54th Street,41.798183134,-87.587364923,"15,28"
King Drive & 50th Street,41.803716263000005,-87.616556899,3
State & Harrison/Congress,41.874882855,-87.627452818,"2,10,29,130,146,148"
Kedzie & Arthur,41.999132768,-87.70926276700001,11
Marine Drive & Leland,41.967347132,-87.64905210299999,"81,136,146"
Touhy & Sacramento,42.011785439,-87.70451856700001,96
Harrison & Homan,41.873566,-87.71088,7
Addison & Hamlin,41.946354299999996,-87.722635993,152
Addison Brown Line Station,41.946841604,-87.674647749,152
Sheridan & Broadway/Devon,41.998130482,-87.6602255,"136,147,151"
Kedzie & 60th Street,41.784363499,-87.703212835,"52,52A"
California & Morse,42.006561,-87.699722999,93
Skokie Blvd & Searle,42.029315872,-87.747345923,54A
Bronx & Dempster,42.040924392,-87.75048791299999,"54A,97"
Cottage Grove & 41st Street,41.820363,-87.606744999,4
Kedzie & 101st Street,41.709829873000004,-87.70152877700001,52A
Orleans & Hill,41.902172,-87.63746399899999,37
Kedzie & 93rd Street,41.724501226,-87.702027877,52A
Baltimore & 132nd Street,41.655592293000005,-87.54720579100001,30
Central & Cullom,41.958729999999996,-87.76724899999999,85
Central Park & 15th Street,41.860880001,-87.715323,82
Michigan & Van Buren/Congress,41.876271,-87.62439600100001,"1,3,4,7,J14,26,28,126,132,143,147"
Kimball & Cortland,41.915597,-87.711919,82
Clark & Morse,42.007866586999995,-87.6737916,22
95th Street & Wentworth,41.721755447,-87.629179131,"N9,95,108,112"
Jackson & Leavitt,41.877672546,-87.681679995,126
Damen & Carroll,41.887756001,-87.676872,50
Rogers & Hermitage,42.016653585,-87.67380983700001,"22,97,201,205,206"
Western & Berwyn,41.978408421,-87.689356335,49B
Harlem Blue Line Station,41.981901621999995,-87.808446424,88
LaSalle & Burton,41.9090037,-87.63296283,156
Michigan & 125th Place,41.66624572,-87.62000793700001,34
Halsted & Altgeld,41.927263,-87.648761001,8
Harlem & Wilson,41.96381113,-87.807372119,90
Lake Shore Drive & Barry,41.937846933,-87.637405019,77
Clark & School/Aldine,41.941848392,-87.65225706,22
Milwaukee & Logan Boulevard,41.928020595,-87.705567969,56
Ashland & Farwell,42.006641274,-87.66978328,155
Cottage Grove & Anthony,41.763376777,-87.60540122200001,4
Pulaski & 18th Street,41.856951,-87.724820999,53
Torrence & 108th Street,41.699197955,-87.559597475,71
Pulaski & Iowa,41.89731967,-87.72624436,53
3700 W Foster,41.975516999999996,-87.721241999,92
Vincennes & 79th Street,41.750623,-87.634134999,24
31st Street & Wallace,41.838049713000004,-87.641553684,31
Balbo & State,41.873150636999995,-87.627365666,"2,10"
67th Street & University,41.773148419,-87.59848948700001,"N5,67"
Lawrence & Christiana,41.968353115,-87.712296251,93
95th Street & Winston,41.721142,-87.660823001,"N9,95"
32nd Street & Lawndale,41.835127443000005,-87.71681944,82
63rd Street & Long,41.778081279,-87.75696754,63W
35th Street & Washtenaw,41.830076,-87.692487999,35
Diversey & Normandy,41.930849,-87.793132999,76
74th Street & Wood,41.759310000999996,-87.668539,75
11000 S Cottage Grove,41.694642,-87.609317,"4,115"
Morgan Drive & Russell Drive,41.793626013,-87.613273294,55
Cermak & Laflin,41.852306497,-87.663787146,"21,60"
Golf Road & Gross Point,42.055182699,-87.740230346,205
115th Street & St. Louis,41.684088650999996,-87.707976863,52A
119th Street & Marshfield,41.677416807,-87.662665985,119
51st Street & Evans,41.802158,-87.60790799899999,15
111th Street & Hoyne,41.691829999999996,-87.674243,112
93rd Street & Yates,41.72619,-87.565782001,"N5,95"
Cermak & Union,41.852597026,-87.644850135,21
Jackson & Menard,41.877109896,-87.76974452600001,126
Grand & Meade,41.921056706,-87.77797233700001,65
1100 E 103rd Street,41.707676823,-87.595933356,106
3700 W Congress,41.874529959,-87.717905088,"7,126"
55th Street & Mayfield,41.792630915,-87.769681284,"55A,55N"
Foster & Wolcott,41.976130672,-87.676236283,"50,92"
Belmont & Plainfield,41.937660668,-87.833543416,77
Lawrence & Kenmore,41.9691222,-87.656542025,81
Armitage & Rockwell,41.91759221,-87.69217103,73
87th Street & Essex,41.737278,-87.563413,87
Montrose & Narragansett,41.960310819,-87.78695946,78
63rd Street & Lorel,41.778226335999996,-87.755513794,63W
Addison & Mobile,41.945752578000004,-87.783727302,152
Fullerton & Leclaire,41.924218111,-87.753511235,74
59th Street & Springfield,41.786046994,-87.720397779,59
1500 E 95th Street,41.722373775,-87.587846203,"N5,95,100"
Oakton & Florence,42.026681536999995,-87.694519758,206
Irving Park & Pine Grove,41.954531,-87.647703999,"80,135,148"
87th Street & Racine,41.735844118,-87.653045851,"24,87"
Irving Park & Pulaski,41.953551804,-87.72778702,80
Stony Island & 68th Street,41.77138715,-87.58638862299999,28
Lexington & Laramie,41.870949818,-87.75461207200001,57
35th Street & King Drive,41.831045324,-87.61675904399999,"4,35"
Madison & Pulaski,41.880614216,-87.725823465,20
Jackson & Leavitt,41.877543964000004,-87.681270938,126
87th Street & Vincennes,41.735946817,-87.64544503200001,"24,87"
Irving Park & Ashland,41.954183437,-87.66925596200001,80
16th Street & Homan,41.85897,-87.710437,18
Grand & Long,41.91780507,-87.760968096,65
Addison & Sayre,41.945321,-87.80076700000001,152
Armitage & Hamlin,41.9171139,-87.721734984,73
63rd Street & Wood,41.779297000999996,-87.668824,63
Devon & Sacramento,41.997416855,-87.704320023,155
Devon & Rockwell,41.997597010999996,-87.69457437700001,155
Devon & Ridge,41.997894793,-87.676558523,155
47th Street & Ellis,41.809513585,-87.60150348200001,47
Lawrence & Rockwell,41.968507461,-87.69355012,81
74th Street & Damen,41.759272544,-87.67320141799999,"75,94"
111th Street & Cottage Grove,41.692699456999996,-87.609295771,111A
Dearborn & Adams,41.879560788,-87.62924766,"22,24,36,62,151"
Racine & 63rd Street,41.779499,-87.65440799999999,44
Roosevelt & Wood,41.866643431,-87.671468206,12
63rd Street & Kostner,41.778485351,-87.73214155,63
Harrison & Racine,41.874191001,-87.657166999,"7, 755"
Harrison & Kedzie,41.87361269,-87.70579198799999,7
State & 26th Street,41.845795507,-87.626713976,29
Kedzie & 63rd Street,41.779139818000004,-87.70304976,"52,52A"
Halsted & 114th Street,41.68677,-87.642092,"8A,108"
63rd Street & Michigan,41.779970974,-87.622274728,63
Diversey & Halsted,41.932662909,-87.64875094899999,76
63rd Street & Western,41.779084543,-87.68316126799999,63
Irving Park & California,41.953875389000004,-87.698025316,80
Laramie & Bloomingdale,41.913231,-87.755838,57
Sheridan & Ardmore,41.987458695,-87.655378934,"136,147,151"
Stony Island & 73rd Street,41.762505342,-87.58634125,28
Cicero & Archer,41.798291609,-87.74305748200001,"47,54B,N62"
Halsted & Chicago,41.896095841,-87.647847522,"8,132"
Milwaukee & Central Park,41.93546421,-87.717732766,56
Pulaski & Ferdinand,41.889785436,-87.726014868,53
State & 41st Street,41.820235244,-87.626498706,29
Archer & Pershing/Rockwell,41.823077341,-87.689438869,"39,62"
Harlem & Addison,41.945411590999996,-87.807104342,90
Harlem & Belmont,41.938166966,-87.806845403,90
State & Pershing,41.823525376999996,-87.62656453700001,29
Sheridan & Kenmore,41.998331611,-87.656935564,"136,147,151"
103rd Street & Central Park,41.706163186,-87.710926424,103
35th Street & Western,41.830356281,-87.684887069,35
Cermak & Hamlin,41.851681912,-87.71976342299999,21
93rd Street & Woodlawn,41.725902814,-87.59513017,"N5,95"
43rd Street & Ellis,41.816935543,-87.60166413799999,43
Garfield & State,41.794699001,-87.626084295,55
Adams & Wells,41.879426001,-87.634024001,"1,7,28,126,130,134,135,136,151,156"
Taylor & Damen,41.869160715,-87.676832824,12
47th Street & Vincennes,41.809499976,-87.613716859,47
Division & Lavergne,41.902358416,-87.750758554,70
Harrison & Oakley,41.873987523000004,-87.683588949,7
63rd Street & Wood,41.77946557,-87.66888621700001,63
Clark & Addison,41.947353948,-87.65674986799999,22
Clark & Harrison,41.874639,-87.63074399999999,24
Clark & Schiller,41.907937,-87.631665001,"22,36"
Jeffery & 87th Street,41.73687335,-87.57580477200001,"J14,15"
103rd Street & Forest,41.707208842,-87.61629256200001,106
79th Street & Clyde,41.751598,-87.573689999,79
Chicago & Pine,41.894813,-87.763681,66
18th Street & Hoyne,41.857537,-87.678504999,18
Racine & 80th Street,41.748588839,-87.653605301,44
Cicero & 15th Street,41.860499001,-87.744402001,54
Sheridan & Winthrop,41.998273855,-87.65834886100001,"136,147,151"
Cermak & Kostner,41.851579877,-87.734313183,21
Pershing & Indiana,41.823840705,-87.621859462,39
Jackson & Desplaines,41.877926864,-87.643750647,126
State & 76th Street,41.756267001,-87.62461000100001,"29,75"
67th Street & Cottage Grove,41.773074065,-87.605944739,"N5,67"
Foster & Kostner,41.975374543,-87.73820464399999,92
Damen & Chicago,41.895844,-87.676953001,50
Ashland & Cortland,41.916024001,-87.66769652,"9,X9"
79th Street & Kilpatrick,41.749086089,-87.73921536200001,79
16th Street & Spaulding,41.858996999999995,-87.708,18
87th Street & Stony Island (Farside),41.736847,-87.584817001,87
103rd Street & Prairie,41.707184358,-87.61751556,106
Armitage & Pulaski,41.917105993,-87.72675397,73
Division & Long,41.902133,-87.761037,70
Touhy & Melvina,42.011952911,-87.781988791,85A
69th Street & Harvard,41.768962708000004,-87.633603855,67
Lake Park & 53rd Street,41.79943053,-87.587172472,"15,28"
Western & Thomas,41.901143137,-87.68686555299999,49
State & 16th Street,41.860033001,-87.627155,"29,62"
Kedzie & 100th Street,41.710951977,-87.701386515,52A
Peterson & Lawndale,41.99016339999999,-87.721242229,84
16th Street & Kedzie,41.859042453,-87.705240934,18
103rd Street & Leavitt,41.706400296999995,-87.676879753,103
Taylor & Oakley,41.868938,-87.683766,157
75th Street & Stony Island,41.758692458,-87.586294081,75
35th Street & Michigan,41.83097454,-87.623429826,35
Roosevelt & 49th Avenue,41.865787911999995,-87.747327466,12
115th Street & Wentworth,41.685170955,-87.627766229,115
Halsted & 106th Street,41.70128,-87.642539999,"8A,108"
Damen & Jackson,41.877409416,-87.67635136,50
Cottage Grove & 48th Street,41.807588,-87.606431999,4
Torrence & 103rd Street,41.708308957,-87.559567108,"J14,100"
North Ave & Wells,41.911049914,-87.634873905,"N9,72"
South Chicago & Ingleside,41.763365003000004,-87.60228391,30
79th Street & Phillips,41.751708177,-87.564851599,79
79th Street & Phillips,41.751824061,-87.564937965,79
Jackson & Homan,41.877208151,-87.710646689,126
26th Street & Keeler,41.844118,-87.72951899899999,60
Gunnison & Meade,41.968409779,-87.780702679,81W
63rd Street & Spaulding,41.778863,-87.705626,63
Broadway & Ardmore,41.987433,-87.660102,36
Ashland & Polk,41.871914546,-87.666385775,9
Cicero & 47th Street,41.80750726,-87.742962693,"47,54B"
Sheridan & Glenlake,41.992523,-87.655378,"136,147,151"
North Ave & Taylor,41.909192987,-87.778206631,72
55th Street & Merrimac,41.792352,-87.778257,55N
79th Street & Kenwood,41.751366675999996,-87.59193546600001,79
115th Street & Union,41.68504356,-87.640506859,115
Grand & Lamon,41.915223931999996,-87.749456235,65
65th Street & Normandy,41.773792429000004,-87.788453297,165
Diversey & Orchard,41.932715402,-87.646408812,76
Devon & Hermitage,41.997954051,-87.673592545,155
Orleans & Oak,41.900382,-87.63724,37
47th Street & Federal,41.809122569,-87.628417506,47
Jackson & Racine,41.877729309,-87.656779164,126
North Ave & Lamon,41.909484355,-87.748976289,72
Garfield & Damen,41.793501145,-87.673988438,55
Addison & Hoyne,41.946764156,-87.68105903899999,152
4632 W Cermak,41.851221595,-87.740264142,"21,54B"
Irving Park & Panama,41.952160289,-87.829440116,80
Golf Road & Knox,42.055179094,-87.744610469,205
18th Street & Paulina (Pink Line),41.857704,-87.668751,18
Lawrence & Campbell,41.968500455,-87.691487579,81
Western Orange Line Station,41.805145249,-87.684020085,94
Wentworth & 24th Street,41.848993001,-87.63184,24
Webster & Orchard,41.921925763000004,-87.64610589,37
5400 S Wentworth,41.796246999999994,-87.63051,24
95th Red Line Station,41.721947595,-87.624010089,108
Archer & Throop,41.84344,-87.654119999,62
Wentworth & 59th Street,41.7871,-87.630263001,24
79th Street & Wood,41.750363223,-87.668477219,79
Addison & Narragansett,41.945723703,-87.786658589,152
Addison & Harlem,41.945324413,-87.807315369,152
111th Street & Halsted,41.692408242,-87.64273392700001,111
Addison & Oakley,41.94671243,-87.685928097,152
87th Street & Langley,41.736544886,-87.607331054,87
Kedzie & 104th Street,41.70426478,-87.701204064,52A
Damen & Huron,41.894021,-87.67690399899999,50
State & 89th Street,41.732608301999996,-87.623973139,29
California & Palmer (Blue Line),41.921783519,-87.697238036,52
87th Street & Hamlin,41.734839848,-87.716034485,87
79th Street & Anthony,41.751388971,-87.58860191,79
Chicago & Leclaire,41.894892,-87.75324999899999,66
Sheridan & Pine Grove,41.95280766,-87.647658924,151
Damen & Cullom,41.959540000000004,-87.678832,50
Halsted & 89th Street,41.732432001,-87.643400001,8A
Racine & 53rd Street,41.797627001,-87.654832001,44
1300 E 95th Street,41.722156897,-87.592395841,"N5,95,100"
87th Street & Prairie,41.736410000999996,-87.617908,87
Peterson & Wolcott,41.990648,-87.67716800000001,84
Harrison & Leavitt,41.873911000999996,-87.681449,7
Cermak & East,41.85051717,-87.788667266,"21,322"
Irving Park & Campbell,41.953906331,-87.69097126700001,80
Orleans & Chestnut,41.898064,-87.63714299899999,37
Halsted & Aldine,41.941718001,-87.649250001,8
Halsted & 36th Street,41.828798,-87.64599100000001,8
Halsted & 52nd Street,41.799675034,-87.645198181,8
Indiana & 34th Street,41.832975001,-87.621706999,"1,4"
63rd Street & Austin,41.77794822,-87.77131344799999,63W
Addison & Sacramento,41.946715217,-87.702829368,152
Lunt & Sheridan,42.009221402,-87.662387395,96
Diversey & Logan,41.93228153,-87.684131866,76
35th Street & Archer,41.830425001,-87.67727,35
Peterson & Pulaski,41.990252202,-87.729038869,84
Jackson & Pulaski,41.877136664,-87.72579473100001,126
Peterson & Rockwell,41.990566139,-87.694468185,84
79th Street & Morgan,41.750637593,-87.648775949,79
Diversey & Halsted,41.932778526999996,-87.649289595,76
100th Street & Torrence,41.71364314,-87.56008810200001,"J14,100"
69th Street & Indiana,41.769284958,-87.62008692799999,"N5,30,67"
103rd Street & Vincennes,41.706859415,-87.65546759700001,103
95th Street & Michigan,41.721876743,-87.621027813,"N5,34,95,100,103,106,111,115,119"
Taylor & Morgan,41.869554,-87.651483,157
Peterson & Kostner,41.990100866,-87.738232019,84
16th Street & Albany,41.859205429,-87.70307081799999,18
51st Street & Kedzie,41.800900651,-87.70360857,51
Addison & Lake Shore,41.948608881,-87.643762985,152
Chicago & Orleans,41.896643835,-87.63741076,66
Chicago & California,41.895731009,-87.69692222799999,66
Root & Union,41.819004073,-87.643224854,"43,44"
Balbo & Columbus,41.873264001,-87.62100200100001,"2,6,10,J14,26,28"
Belmont & Kilpatrick,41.938930344,-87.743791302,77
79th Street & Western,41.750200000999996,-87.682612,"79,169"
Irving Park & Laramie,41.953398381,-87.757354884,80
87th Street & Greenwood,41.736795,-87.597422,87
Avenue O & Veteran's Drive (12400 S),41.668146971999995,-87.53873104600001,30
Lafayette & 72nd Street,41.763892999999996,-87.62657800000001,29
Dearborn & Chestnut,41.897896,-87.62974800100001,22
Nagle & Catalpa,41.981003607,-87.787691639,"86,91"
Torrence & 104th Street,41.706209344,-87.55954514,"26,71,100"
Racine & 65th Street,41.776000959,-87.65445522,44
Halsted & 100th Street,41.712238,-87.64286700000001,"8A,108"
Ridge & Main,42.034082522,-87.686915019,"201,206"
Archer & Francisco,41.81877037,-87.69677624799999,62
Laramie & Fulton,41.88555,-87.755178001,57
State & 64th Street,41.777432001,-87.62533,29
Harlem & Lake,41.88867963,-87.805269469,"90,307,318"
Harlem & Byron,41.950638,-87.807119,90
Ewing & 102nd Street,41.710224,-87.535384,"26,30"
26th Street & Lawndale,41.844289,-87.71733299899999,60
Montrose & Oakley,41.961288,-87.686368,78
Foster & Sheridan,41.976335,-87.654755001,"136,146,147"
16th Street & Kostner,41.858644584000004,-87.734895577,18
Pershing & Halsted,41.82339102,-87.645644082,39
Pershing & Indiana,41.823705638,-87.621356756,39
Irving Park & Narragansett,41.952847581,-87.786249054,80
63rd Street & Cicero,41.77834269,-87.741914688,63
Armitage & Lincoln/Sedgwick,41.918255754,-87.638996225,73
Sheridan & Jarvis,42.016268,-87.665017999,147
Sheridan & Pratt,42.005720000000004,-87.660848,147
Western & Pershing,41.822895707,-87.684713435,49
Cottage Grove & 35th Street,41.831085993,-87.610478894,4
Halsted & Root,41.818432925,-87.645697981,"8,43,44"
King Drive & 61st Street,41.784049708000005,-87.61564045700001,3
California & Jackson,41.87765801,-87.696109525,94
Sheridan & Belmont,41.940371746,-87.639479042,"135,146,151"
Damen & Berteau,41.957716001,-87.678783,50
State & E. Wacker,41.886689000000004,-87.627831,"2,10,29"
Cermak & Western,41.851956899,-87.68583041,21
Addison & Kedzie,41.946568644,-87.70758353299999,152
Grand & Keeler,41.907979158,-87.731147605,65
Bryn Mawr & Sheridan,41.983804,-87.655508,84
Fullerton & Kedzie,41.924856435,-87.70764323899999,74
Chicago & Pulaski,41.895444626,-87.725901165,66
79th Street & Pulaski,41.749618156,-87.721667306,"79,169"
Garfield & Normal,41.794027242,-87.63752305700001,55
Cermak & Halsted,41.852568315,-87.646669068,21
103rd Street & Woodlawn,41.707542885,-87.594553047,106
Nagle & Raven,41.993496315,-87.787462229,86
Austin & Augusta,41.898505128000004,-87.77517594,91
State & 83rd Street,41.743493001,-87.62427199999999,29
Stony Island & 93rd Street,41.725871614,-87.584820778,"N5,28,95"
Kedzie & 26th Street,41.844681648000005,-87.704955328,52
Kedzie & 28th Street,41.841043921,-87.70485969399999,52
California & 68th Street,41.769922001,-87.692995,94
3700 S. Cicero,41.826018171,-87.74342281,54B
Homan & Huron,41.893587,-87.711318,82
79th Street & Princeton,41.750783,-87.632052999,"8A,24,79"
130th Street & Baltimore,41.659090891,-87.54727681600001,30
Armitage & Richmond,41.917409246,-87.700518871,73
Grand & Sacramento Blvd.,41.896398888,-87.70204875299999,65
26th Street & St. Louis,41.844355,-87.71246,60
87th Street & California,41.73525807,-87.692417425,87
Garfield & Federal,41.794206545,-87.627503474,55
Foster & Keating,41.975299996,-87.74569986200001,92
9320 S Ewing,41.726723355,-87.539870794,"26,30"
Halsted & 80th Street,41.74874573,-87.64381267899999,8A
Clarendon & Belle Plaine,41.957343,-87.649703,"135,148"
Central Street & Reese,42.064357623,-87.713980111,"201,206"
51st Street & Campbell,41.801034803,-87.686786644,"51,94"
4542 W Cermak,41.851211133,-87.737906577,"21,54B"
63rd Street & 74th Avenue,41.777061511,-87.80583605700001,"62H,63W"
100th Street & Yates,41.713466593,-87.564705535,"J14,15"
95th Red Line Station,41.722737931,-87.62412248700001,29
69th Street & Prairie,41.769199973,-87.61868868,"N5,30,67"
South Chicago & 75th Street/Woodlawn,41.759099972,-87.595917954,30
Pulaski & Ohio,41.891699093,-87.72604275100001,53
Lafayette & 94th Street,41.723682000000004,-87.62514300000001,29
Commercial & 93rd Street/South Chicago,41.726621778,-87.551270334,71
Halsted & 89th Street,41.732625941,-87.643653215,8A
Vincennes & 98th Street,41.71595667,-87.65272508299999,112
S. Shore Drive & 72nd Street,41.765973374,-87.56242860200001,"6,26"
South Chicago & Oglesby,41.738635826,-87.567496202,30
55th Street & Lawndale,41.793233782,-87.71559546200001,55
103rd Street & Cottage Grove,41.707379925,-87.606148359,106
Madison & Kilbourn,41.880485006,-87.737680519,20
103rd Street & Longwood,41.706513814000004,-87.670841945,103
Montrose & Kostner,41.96074081,-87.738554615,78
63rd Street & Pulaski,41.778598497,-87.722410328,63
74th Street & Morgan,41.759586999999996,-87.649208,75
55th Street & Kedzie,41.793452019,-87.703290815,55
Ainslie & Western,41.970333143000005,-87.689169871,11
79th Red Line Station,41.750898527,-87.62494094799999,79
Chicago & Laramie,41.894864964,-87.755335253,66
Devon & Kedzie Terminal,41.997788539,-87.709528744,155
63rd Street & Stony Island,41.780532884,-87.586658515,63
Addison Red Line Station,41.947197043,-87.653634806,152
87th Street & Colfax,41.737203001,-87.561417,87
Laramie & Division,41.902158153,-87.75568054200001,57
Central & Roscoe,41.942134,-87.76654599999999,85
North Ave & Pulaski,41.909779516,-87.725960997,72
Devon & California,41.997501811,-87.699800274,155
63rd Street & Narragansett,41.77761513,-87.780879897,63W
47th Street & Princeton,41.808988896,-87.633455482,47
111th Street & Normal,41.692385777,-87.63526419799999,111
Michigan & 103rd Street,41.707488384,-87.62007609,"34,103,119"
Michigan & 29th Street,41.841882001,-87.62324,"1,4"
Dearborn & Huron,41.894740000000006,-87.629637,22
Dearborn & Chicago,41.896494,-87.62967900000001,22
Racine & Harrison,41.874151,-87.65671400000001,60
McCormick Place,41.851078575,-87.619053204,"3,21"
Cottage Grove & 57th Street,41.791451014,-87.606249699,"2,4"
Lafayette & 75th Street,41.75791494,-87.62643222700001,75
Blue Island & 16th Street,41.859608996999995,-87.65948839,60
Central & Race,41.889213001,-87.765101,85
Broadway & Lawrence,41.968865217,-87.65955295799999,36
Commercial & 100th Street,41.71327934,-87.55086692,71
Archer & Western Avenue,41.825713793,-87.68509183799999,"39,62"
Sheridan & Surf,41.934495801,-87.639259864,"77,134,143,151,156"
Austin & Eastwood,41.964828228,-87.77708490299999,91
Lake Park & 55th Street,41.795039541,-87.587452194,"15,28"
California & Pershing,41.822686866,-87.69455602299999,94
Laramie & Hirsch,41.905951001,-87.755926,57
Halsted & Taylor,41.869851001,-87.647125001,8
Vincennes & Monterey,41.690439866,-87.66435488799999,"111,112"
Diversey & Wolcott,41.932259944,-87.67586366399999,76
Kedzie & Chicago,41.895434342,-87.70646001200001,52
Madison & Sacramento,41.880954033,-87.70088083600001,20
Fullerton & Austin,41.923717385,-87.775842199,74
LaSalle & Schiller,41.907902868,-87.63291501100001,156
Kedzie & 16th Street,41.859211547,-87.70538048799999,52
87th Street & Wood,41.735627014,-87.668069859,87
Roosevelt & Michigan,41.867593223,-87.62450325799999,"12,130,146"
95th Street & Stony Island,41.72245252,-87.584774796,100
95th Street & Vanderpoel,41.721270531,-87.666183116,95
79th Street & St. Lawrence,41.751250001,-87.609893,79
103rd Street & California,41.706405112,-87.691342825,103
Garfield & Halsted,41.794350382,-87.645541206,55
79th Street & Talman,41.750112,-87.68875799899999,79
Irving Park & Lamon,41.953488308000004,-87.749809394,80
Taylor & Ashland,41.869327454,-87.666778041,157
47th Street & Michigan,41.809351189000004,-87.623095332,47
Addison & Cicero,41.946183019,-87.747396744,152
Belmont & Damen,41.939639149,-87.678702767,77
Harlem & Bloomingdale,41.91231323,-87.80596421,"90,307"
Harlem & Armitage,41.916065483000004,-87.80608877,"90,307"
Vincennes & 79th Street,41.750877583000005,-87.63436810799999,24
Western & Hubbard,41.889339668000005,-87.68677338799999,49
Narragansett & 63rd Street,41.777567202,-87.781381685,55N
Lehigh & Caldwell,41.996436071,-87.765178617,85A
Lincoln & Foster,41.97559788,-87.69243197799999,11
Clark & Harrison,41.874295106999995,-87.630753864,22
Avenue O & 116th Street,41.684920954,-87.540273717,30
King Drive & Garfield,41.794895477,-87.616052185,3
LaSalle & Huron,41.894636363000004,-87.632805795,156
South Chicago & 76th Street,41.756783979,-87.59272689,30
Narragansett & Bloomingdale,41.91285,-87.785184,86
Lincoln & Berwyn,41.977658,-87.69250500000001,11
Western & Columbus,41.758827268000005,-87.68322680200001,"49,X49"
Northwest Hwy & Oliphant,42.002817897,-87.816307116,68
Narragansett & Berteau,41.956450317,-87.78679862799999,86
Central & Augusta,41.898617113,-87.765620571,85
Damen & 61st Street,41.782851,-87.673862999,48
Cicero & Berteau,41.956892084,-87.74750923799999,"54,54A"
Halsted & 119th Street,41.677991536,-87.64178572600001,"8A,108"
Western & Addison,41.946593463,-87.68810851799999,"49,X49"
Kedzie & Touhy,42.012049691,-87.708968517,11
Ashland & Irving Park,41.954186385999996,-87.668916036,"9,X9"
Archer & Damen,41.83201447,-87.675178698,62
Kedzie & 48th Place,41.805777000999996,-87.70398,"47,52"
Kedzie & 45th Street,41.811615116999995,-87.70402509799999,52
Lake Shore & Roscoe,41.943529618,-87.640474984,"135,146,151"
King Drive & 29th Street,41.842290000000006,-87.61717,3
California & Milwaukee,41.922687773,-87.697276639,52
Damen & 69th Street,41.768344198,-87.67353087299999,48
Kedzie & Ohio,41.892132071,-87.70636067299999,52
California & 55th Street,41.793567438000004,-87.693710737,94
Western & Garfield,41.793732665,-87.683899771,"49,X49"
Western & 35th Street,41.83039914,-87.685145902,"49,X49"
Desplaines & Fulton,41.88694,-87.644378,56
Clark & Balmoral,41.979682036,-87.668361011,22
Stony Island & 95th Street,41.722579001,-87.585295001,"N5,28,95"
Vincennes & 95th Street,41.720941499999995,-87.650887501,112
Halsted & 98th Street,41.716068,-87.64319300000001,"8A,108"
Homan & Franklin,41.89029483,-87.711329275,82
Cicero & 50th Street,41.802233784,-87.743173716,"47,54B"
Archer & Cermak/Princeton,41.852651198000004,-87.635045131,62
State & 61st Street,41.783895001,-87.625513,29
Clark & Montrose,41.96174418,-87.666080245,"22,78"
Devon & Kedzie Terminal,41.997926433,-87.709539419,82
Solidarity Dr & Lynn White Drive,41.866173704,-87.60976788100001,"130,146"
Roosevelt & Cicero,41.865825663,-87.74439834100001,12
103rd Street & Union,41.706884427,-87.640516319,103
95th Street & Forest,41.721747164,-87.616663894,"N5,95,100,115"
75th Street & Paxton,41.758861178000004,-87.57133435700001,"N5,75"
Belmont & Oketo,41.937928,-87.81173599899999,77
Belmont & Nottingham,41.937971999999995,-87.804353999,77
Oakenwald & 43rd Street,41.816976001,-87.597477001,43
Kedzie & 96th Street,41.71890996,-87.70166917899999,52A
State & 58th Street,41.789035,-87.62545199899999,29
Central & Byron,41.951244001,-87.766860001,85
Jeffery & 97th Street,41.718878000000004,-87.575214999,15
Stockton & Webster,41.921923413,-87.635625569,"151,156"
Harlem & Schneider,41.896187844,-87.80511620899999,"90,307,318"
Harlem & 59th Street,41.78475322,-87.80105911700001,62H
8600 S Kedzie,41.737089299000004,-87.701953139,52A
13601 S Avenue O (Senior Bldg),41.648394773,-87.539869952,30
State & 27th Street,41.844382,-87.626673001,29
Harlem & Argyle,41.971793996,-87.80694273299999,90
Dodge & Monroe,42.030587623,-87.699244049,"93,206"
Narragansett & 58th Street,41.786751,-87.781524,55N
Clarendon & Bittersweet,41.955751921,-87.64964027200001,"135,148"
Ridge & Monroe,42.030599026,-87.685737263,"201,206"
Commercial & 101st Street,41.711806803,-87.551440745,71
300 S Northwest Hwy,42.008173613000004,-87.824562192,68
Michigan & 125th Place,41.666449821,-87.62015135,34
Clark & 11th Place,41.868655391,-87.630579578,24
Dodge & Seward,42.029473771999996,-87.699491037,"93,206"
Pulaski & 77th Street,41.752793515,-87.72217861799999,53A
Grand & Newcastle,41.923526,-87.797189,"65,74"
Western & Berteau,41.957554011,-87.68844200000001,49
Michigan & Chestnut,41.898069,-87.62396,"143,146,147,148,151"
King Drive & Garfield,41.794402221,-87.61589863799999,3
Damen & Wellington,41.935840999999996,-87.678159,50
Pulaski & 42nd Street,41.816807503,-87.72374976299999,53A
California & Touhy,42.011981,-87.699639,93
Wallace & 35th Street,41.830695256999995,-87.641135654,44
Broadway & Catalpa,41.981703,-87.659941,36
Kedzie & Madison,41.880870254,-87.70602470600001,52
State & Ontario,41.893186,-87.627992,36
Cicero & Foster,41.975173147,-87.747875031,54A
Clark & Polk,41.872091001,-87.630524999,24
Cicero & 63rd Street,41.778205626,-87.74212167299999,"54B,165"
Western & 71st Street,41.764926034,-87.68311680299999,"49,67,94"
Sheridan & Touhy,42.013005,-87.663375001,147
Central & Irving Park,41.953406877,-87.766917458,85
Central & Bryn Mawr,41.982845000000005,-87.768272,"85,85A"
King Drive & 81st Street,41.747627135,-87.614804295,3
Pulaski & Montrose,41.960851805,-87.72770459799999,53
Montrose & Clarendon,41.961898498000004,-87.649807831,78
King Drive & 49th Street,41.805854595999996,-87.616375531,3
Diversey & Ashland,41.932467097,-87.668613395,76
Grand & Ashland,41.8910639,-87.666958667,65
Foster & Broadway,41.976397866999996,-87.65962002,"92,146"
63rd Street & Kostner,41.778601655,-87.73287533,63
Armitage & Keeler,41.9171637,-87.731342008,73
63rd Street & State,41.78015549,-87.625055775,63
95th Street & Ashland,41.721306025,-87.66319167399999,95
51st Street & Wabash,41.80210672,-87.624056936,15
75th Street & Yates,41.759045070999996,-87.56625726200001,"N5,75"
Addison & Forest Preserve Avenue,41.945115672,-87.82511975700001,152
Jackson & Damen,41.877552658,-87.676835401,126
55th Street & Homan,41.793500328,-87.708760541,55
Roosevelt & Sacramento,41.866539753000005,-87.70064598100001,12
Kedzie & 27th Street,41.842605999999996,-87.704904999,52
Broadway & Waveland,41.949262279,-87.648508441,36
Narragansett & 59th Street,41.785080001,-87.781601999,55N
Milwaukee & Carpenter,41.895082065,-87.65332322299999,56
Congress Plaza & Michigan,41.874858092,-87.623551132,"7,126,132,143,147"
California & North Shore,42.003103,-87.699848999,93
California & 68th Street,41.770074,-87.69314,94
5400 N Pulaski,41.97966088,-87.728446671,53
King Drive & 77th Street,41.754647775,-87.615106474,3
Harlem & Hood,41.992107,-87.80691800000001,88
Halsted Orange Line Station,41.846622427,-87.648262285,44
87th Street & Kenton,41.734436925,-87.736699547,87
87th Street & Sacramento,41.735169254,-87.69710619799999,87
71st Street & Campbell,41.764599,-87.685789999,"67,94"
Roosevelt & Laramie,41.865648589,-87.754673916,12
Halsted & 28th Street,41.843396544,-87.64632591600001,8
Halsted & 59th Street,41.787225028,-87.64487739399999,8
Damen & Le Moyne,41.908297999999995,-87.677301,50
Halsted & Polk,41.871780001,-87.646879,8
Dodge & South Blvd,42.027255597,-87.699298145,"93,206"
51st Street & Princeton,41.80174092,-87.63327377200001,51
Cermak & 50th Avenue,41.851317033,-87.748950886,"21,N60,302"
103rd Street & Harvard,41.707113135,-87.632495515,103
North Ave & Clark,41.911234496,-87.63202174899999,"N9,72"
S. Shore Drive & Coles,41.766372183,-87.564868005,"6,26"
Fullerton & St. Louis,41.924701139,-87.714229719,74
Cermak & Sacramento,41.851914281,-87.700313383,21
Pershing & Damen,41.823184246,-87.675338653,39
63rd Street & Stewart,41.779964963000005,-87.634887155,63
47th Street & Kolmar,41.807759257,-87.737106571,47
Foster & Kimball,41.975628189,-87.71324366799999,92
Marine Drive & Lawrence,41.969349845,-87.649602948,"136,146,148"
Columbus & Illinois,41.890852001,-87.620080001,"N66,124"
Addison & Harlem,41.94520049,-87.806824202,152
Grand & Streeter,41.892011,-87.612125,"2,29,65,66,124"
Grand & Clark,41.891693,-87.630945,65
Foster & Clark,41.976256234000004,-87.66823166200001,92
Montrose & California,41.961300889,-87.698354162,78
35th Street & Racine,41.830680011999995,-87.655608036,35
59th Street & St. Louis,41.78620588,-87.71056372700001,59
63rd Street & Racine,41.779675923,-87.654733154,63
Grand & Narragansett,41.922661093,-87.78527711299999,65
Diversey & Sheridan/Lakeview,41.932960697,-87.639629986,76
31st Street & Throop,41.837817616,-87.65857927799999,31
31st Street & Homan,41.837065764,-87.709826111,35
76th Street & Kostner,41.754868027,-87.73213994,67
76th Street & Daley College,41.754995492,-87.72411101600001,67
Wacker (Upper) & Orleans/Franklin,41.886876021999996,-87.63554025299999,125
Halsted & 125th Street,41.666782835,-87.641413865,"8A,108"
Skokie Blvd & Howard,42.019084024,-87.74751694700001,54A
Harlem & Grace,41.948815,-87.80705400000001,90
Narragansett & 61st Street,41.781248,-87.781322999,55N
Cicero & Byron,41.951513702,-87.747109998,54
Halsted & 84th Street,41.74143804,-87.643696979,8A
Wallace & 33rd Street,41.834403807,-87.64122962399999,44
Lake Park & 48th Street,41.808023001,-87.59050000100001,"2,6,28"
87th Street & Wallace,41.73619802,-87.63864015700001,"24,87"
87th Street & Halsted,41.73616925,-87.64406411,"24,87"
67th Street & Greenwood,41.773137419,-87.599801488,"N5,67"
79th Street & Marquette,41.751773,-87.55909799999999,79
Pershing & Sacramento,41.822634605,-87.699696795,39
Grand & Marmora,41.920063522,-87.77325641799999,65
Randolph & Michigan,41.884285534,-87.623620265,"4,60"
87th Street & Paulina,41.735656028,-87.665622878,87
67th Street & Crandon,41.773482406999996,-87.570131694,"6,26,67"
95th Street & Princeton,41.721517039,-87.631211039,"N9,95,108,112"
103rd Street & Fairfield,41.706240787,-87.68995525,103
79th Street & Oakley,41.750035,-87.680649999,79
Peterson & Kilbourn,41.98990311,-87.740893802,84
Chicago & Campbell,41.895628128,-87.689413984,66
115th Street & Loomis,41.684809829,-87.65676935200001,115
Halsted & Waveland/Broadway Terminal,41.949825679,-87.649149689,8
55th Street & Washtenaw,41.793649926,-87.69124429200001,55
Torrence & 107th Street,41.700974802,-87.559450794,71
Howard & California/Dodge,42.019399224000004,-87.69942136200001,97
Pershing & Wabash,41.823809151,-87.624691267,39
Touhy & California,42.012118398,-87.699988823,96
63rd Street & Keeler,41.778663944,-87.727936124,63
Foster & Leavitt,41.976006698,-87.684175807,92
87th Street & Damen,41.735770629,-87.672662004,87
Division & Noble,41.903505645,-87.662483083,70
69th Street & Ashland,41.768619718000004,-87.663692881,67
Grand & Ogden,41.891148249000004,-87.65868696,65
36th Street & Kedzie,41.828025419,-87.70431001899999,35
Division & Larrabee,41.90362586,-87.643689809,70
Addison & Lavergne,41.946025821999996,-87.752060455,152
Montrose & Lincoln,41.961323338,-87.683953088,78
Lawrence & California,41.968446506,-87.698869385,81
87th Street & St. Lawrence,41.736533001,-87.60980500000001,87
Peterson & Western,41.990381263,-87.689876862,84
Belmont & Sacramento,41.9393,-87.702831,77
